[{"place_id":198019757,"licence":"Data © OpenStreetMap contributors, ODbL 1.0. https://osm.org/copyright","osm_type":"relation","osm_id":53292,"boundingbox":["39.6448625","42.6610848","19.1246095","21.0574335"],"lat":"41.000028","lon":"19.9999619","display_name":"Albania","class":"boundary","type":"administrative","importance":0.857034404762567,"icon":"https://nominatim.openstreetmap.org/images/mapicons/poi_boundary_administrative.p.20.png","yb_name":"Albania"},{"place_id":198412097,"licence":"Data © OpenStreetMap contributors, ODbL 1.0. https://osm.org/copyright","osm_type":"relation","osm_id":2177187,"boundingbox":["-14.7608358","-10.8449746","-171.2951296","-167.9322899"],"lat":"-14.30063095","lon":"-170.695974791655","display_name":"American Samoa, United States of America (American Samoa)","class":"boundary","type":"administrative","importance":0.7677219989658699,"icon":"https://nominatim.openstreetmap.org/images/mapicons/poi_boundary_administrative.p.20.png","yb_name":"Albania"},{"place_id":198640092,"licence":"Data © OpenStreetMap contributors, ODbL 1.0. https://osm.org/copyright","osm_type":"relation","osm_id":9407,"boundingbox":["42.4288238","42.6559357","1.4135781","1.7863837"],"lat":"42.5407167","lon":"1.5732033","display_name":"Andorra","class":"boundary","type":"administrative","importance":0.796846987641114,"icon":"https://nominatim.openstreetmap.org/images/mapicons/poi_boundary_administrative.p.20.png","yb_name":"Albania"},{"place_id":198146495,"licence":"Data © OpenStreetMap contributors, ODbL 1.0. https://osm.org/copyright","osm_type":"relation","osm_id":195267,"boundingbox":["-18.038945","-4.3880634","11.4609793","24.0878856"],"lat":"-11.8775768","lon":"17.5691241","display_name":"Angola","class":"boundary","type":"administrative","importance":0.832698309204706,"icon":"https://nominatim.openstreetmap.org/images/mapicons/poi_boundary_administrative.p.20.png","yb_name":"Albania"},{"place_id":198385436,"licence":"Data © OpenStreetMap contributors, ODbL 1.0. https://osm.org/copyright","osm_type":"relation","osm_id":2177161,"boundingbox":["18.0615454","18.7951194","-63.6391992","-62.7125449"],"lat":"18.1954947","lon":"-63.0750234","display_name":"Anguilla","class":"boundary","type":"administrative","importance":0.717565645792139,"icon":"https://nominatim.openstreetmap.org/images/mapicons/poi_boundary_administrative.p.20.png","yb_name":"Albania"},{"place_id":263052728,"licence":"Data © OpenStreetMap contributors, ODbL 1.0. https://osm.org/copyright","osm_type":"relation","osm_id":9604138,"boundingbox":["16.798","17.37","-62.1240865","-61.447857"],"lat":"17.086","lon":"-61.7862945333333","display_name":"Antigua, Antigua and Barbuda","class":"boundary","type":"administrative","importance":0.66,"icon":"https://nominatim.openstreetmap.org/images/mapicons/poi_boundary_administrative.p.20.png","yb_name":"Albania"},{"place_id":198193853,"licence":"Data © OpenStreetMap contributors, ODbL 1.0. https://osm.org/copyright","osm_type":"relation","osm_id":286393,"boundingbox":["-55.1850761","-21.781168","-73.5605371","-53.6374515"],"lat":"-34.9964963","lon":"-64.9672817","display_name":"Argentina","class":"boundary","type":"administrative","importance":0.944576509093795,"icon":"https://nominatim.openstreetmap.org/images/mapicons/poi_boundary_administrative.p.20.png","yb_name":"Albania"},{"place_id":198256689,"licence":"Data © OpenStreetMap contributors, ODbL 1.0. https://osm.org/copyright","osm_type":"relation","osm_id":364066,"boundingbox":["38.8404775","41.300712","43.4471395","46.6333087"],"lat":"40.7696272","lon":"44.6736646","display_name":"Armenia","class":"boundary","type":"administrative","importance":0.860709201909645,"icon":"https://nominatim.openstreetmap.org/images/mapicons/poi_boundary_administrative.p.20.png","yb_name":"Albania"},{"place_id":68105819,"licence":"Data © OpenStreetMap contributors, ODbL 1.0. https://osm.org/copyright","osm_type":"node","osm_id":5760783200,"boundingbox":["12.1702998","12.8102998","-70.2809842","-69.6409842"],"lat":"12.4902998","lon":"-69.9609842","display_name":"Aruba, ARUBA, Netherlands","class":"place","type":"island","importance":0.741654542736479,"yb_name":"Albania"},{"place_id":198120966,"licence":"Data © OpenStreetMap contributors, ODbL 1.0. https://osm.org/copyright","osm_type":"relation","osm_id":80500,"boundingbox":["-55.3228175","-9.0880125","72.2461932","168.2261259"],"lat":"-24.7761086","lon":"134.755","display_name":"Australia","class":"boundary","type":"administrative","importance":0.987788364599179,"icon":"https://nominatim.openstreetmap.org/images/mapicons/poi_boundary_administrative.p.20.png","yb_name":"Albania"},{"place_id":198642089,"licence":"Data © OpenStreetMap contributors, ODbL 1.0. https://osm.org/copyright","osm_type":"relation","osm_id":16239,"boundingbox":["46.3722761","49.0205305","9.5307487","17.160776"],"lat":"47.2000338","lon":"13.199959","display_name":"Austria","class":"boundary","type":"administrative","importance":0.961846000893278,"icon":"https://nominatim.openstreetmap.org/images/mapicons/poi_boundary_administrative.p.20.png","yb_name":"Albania"},{"place_id":197854638,"licence":"Data © OpenStreetMap contributors, ODbL 1.0. https://osm.org/copyright","osm_type":"relation","osm_id":364110,"boundingbox":["38.3929551","41.9502947","44.7633701","51.0090302"],"lat":"40.3936294","lon":"47.7872508","display_name":"Azerbaijan","class":"boundary","type":"administrative","importance":0.860821063322338,"icon":"https://nominatim.openstreetmap.org/images/mapicons/poi_boundary_administrative.p.20.png","yb_name":"Albania"},{"place_id":198513396,"licence":"Data © OpenStreetMap contributors, ODbL 1.0. https://osm.org/copyright","osm_type":"relation","osm_id":1629146,"boundingbox":["36.9276305","39.7270414","-31.2756316","-25.0131792"],"lat":"37.2577796","lon":"-28.030992","display_name":"Azores, Portugal","class":"boundary","type":"administrative","importance":0.75775498097969,"icon":"https://nominatim.openstreetmap.org/images/mapicons/poi_boundary_administrative.p.20.png","yb_name":"Albania"},{"place_id":198832403,"licence":"Data © OpenStreetMap contributors, ODbL 1.0. https://osm.org/copyright","osm_type":"relation","osm_id":547469,"boundingbox":["20.7059846","27.4734551","-80.7001941","-72.4477521"],"lat":"24.7736546","lon":"-78.0000547","display_name":"The Bahamas","class":"boundary","type":"administrative","importance":0.780952503736146,"icon":"https://nominatim.openstreetmap.org/images/mapicons/poi_boundary_administrative.p.20.png","yb_name":"Albania"},{"place_id":62058959,"licence":"Data © OpenStreetMap contributors, ODbL 1.0. https://osm.org/copyright","osm_type":"node","osm_id":5065327422,"boundingbox":["24.4768098","24.4769098","90.2931799","90.2932799"],"lat":"24.4768598","lon":"90.2932299","display_name":"Bangladesh, Bhabanipur, Mymensingh District, Mymensingh Division, Bangladesh","class":"amenity","type":"embassy","importance":0.836207481537663,"yb_name":"Albania"},{"place_id":198832411,"licence":"Data © OpenStreetMap contributors, ODbL 1.0. https://osm.org/copyright","osm_type":"relation","osm_id":547511,"boundingbox":["12.845","13.535","-59.8562115","-59.2147175"],"lat":"13.1500331","lon":"-59.5250305","display_name":"Barbados","class":"boundary","type":"administrative","importance":0.786785241578867,"icon":"https://nominatim.openstreetmap.org/images/mapicons/poi_boundary_administrative.p.20.png","yb_name":"Albania"},{"place_id":198673393,"licence":"Data © OpenStreetMap contributors, ODbL 1.0. https://osm.org/copyright","osm_type":"relation","osm_id":59065,"boundingbox":["51.2575982","56.17218","23.1783344","32.7627809"],"lat":"53.4250605","lon":"27.6971358","display_name":"Belarus","class":"boundary","type":"administrative","importance":0.877393550874262,"icon":"https://nominatim.openstreetmap.org/images/mapicons/poi_boundary_administrative.p.20.png","yb_name":"Albania"},{"place_id":198019243,"licence":"Data © OpenStreetMap contributors, ODbL 1.0. https://osm.org/copyright","osm_type":"relation","osm_id":52411,"boundingbox":["49.4969821","51.5538876","2.3889137","6.408097"],"lat":"50.6402809","lon":"4.6667145","display_name":"Belgium","class":"boundary","type":"administrative","importance":0.957539984396911,"icon":"https://nominatim.openstreetmap.org/images/mapicons/poi_boundary_administrative.p.20.png","yb_name":"Albania"},{"place_id":198162679,"licence":"Data © OpenStreetMap contributors, ODbL 1.0. https://osm.org/copyright","osm_type":"relation","osm_id":287827,"boundingbox":["15.8857286","18.4959143","-89.2273252","-87.3098494"],"lat":"16.8259793","lon":"-88.7600927","display_name":"Belize","class":"boundary","type":"administrative","importance":0.781070750969746,"icon":"https://nominatim.openstreetmap.org/images/mapicons/poi_boundary_administrative.p.20.png","yb_name":"Albania"},{"place_id":197668526,"licence":"Data © OpenStreetMap contributors, ODbL 1.0. https://osm.org/copyright","osm_type":"relation","osm_id":192784,"boundingbox":["6.0398696","12.4092447","0.776667","3.843343"],"lat":"9.5293472","lon":"2.2584408","display_name":"Benin","class":"boundary","type":"administrative","importance":0.788467443745791,"icon":"https://nominatim.openstreetmap.org/images/mapicons/poi_boundary_administrative.p.20.png","yb_name":"Albania"},{"place_id":198594602,"licence":"Data © OpenStreetMap contributors, ODbL 1.0. https://osm.org/copyright","osm_type":"relation","osm_id":1993208,"boundingbox":["32.0469651","32.5913693","-65.1232222","-64.4109842"],"lat":"32.3018217","lon":"-64.7603583","display_name":"Bermuda","class":"boundary","type":"administrative","importance":0.766853319440424,"icon":"https://nominatim.openstreetmap.org/images/mapicons/poi_boundary_administrative.p.20.png","yb_name":"Albania"},{"place_id":198153744,"licence":"Data © OpenStreetMap contributors, ODbL 1.0. https://osm.org/copyright","osm_type":"relation","osm_id":252645,"boundingbox":["-22.8982742","-9.6689438","-69.6450073","-57.453"],"lat":"-17.0568696","lon":"-64.9912286","display_name":"Bolivia","class":"boundary","type":"administrative","importance":0.859703442101901,"icon":"https://nominatim.openstreetmap.org/images/mapicons/poi_boundary_administrative.p.20.png","yb_name":"Albania"},{"place_id":198521058,"licence":"Data © OpenStreetMap contributors, ODbL 1.0. https://osm.org/copyright","osm_type":"relation","osm_id":2324450,"boundingbox":["11.825","12.512","-68.6255319","-67.9907966"],"lat":"12.167","lon":"-68.2909680033101","display_name":"Bonaire, Caribbean Netherlands, Netherlands","class":"boundary","type":"administrative","importance":0.665742449188694,"icon":"https://nominatim.openstreetmap.org/images/mapicons/poi_boundary_administrative.p.20.png","yb_name":"Albania"},{"place_id":198689740,"licence":"Data © OpenStreetMap contributors, ODbL 1.0. https://osm.org/copyright","osm_type":"relation","osm_id":2528142,"boundingbox":["42.5553114","45.2764135","15.7287433","19.6237311"],"lat":"44.3053476","lon":"17.5961467","display_name":"B&H","class":"boundary","type":"administrative","importance":0.65,"icon":"https://nominatim.openstreetmap.org/images/mapicons/poi_boundary_administrative.p.20.png","yb_name":"Albania"},{"place_id":198707342,"licence":"Data © OpenStreetMap contributors, ODbL 1.0. https://osm.org/copyright","osm_type":"relation","osm_id":1889339,"boundingbox":["-26.9059669","-17.778137","19.9986474","29.375304"],"lat":"-23.1681782","lon":"24.5928742","display_name":"Botswana","class":"boundary","type":"administrative","importance":0.78952104895313,"icon":"https://nominatim.openstreetmap.org/images/mapicons/poi_boundary_administrative.p.20.png","yb_name":"Albania"},{"place_id":197447162,"licence":"Data © OpenStreetMap contributors, ODbL 1.0. https://osm.org/copyright","osm_type":"relation","osm_id":59470,"boundingbox":["-33.8689056","5.2842873","-73.9830625","-28.6341164"],"lat":"-10.3333333","lon":"-53.2","display_name":"Brazil","class":"boundary","type":"administrative","importance":0.987920022354196,"icon":"https://nominatim.openstreetmap.org/images/mapicons/poi_boundary_administrative.p.20.png","yb_name":"Albania"},{"place_id":247631894,"licence":"Data © OpenStreetMap contributors, ODbL 1.0. https://osm.org/copyright","osm_type":"relation","osm_id":6038068,"boundingbox":["49.9586975","58.672078","-6.2280845","1.7632199"],"lat":"54.31536155","lon":"-1.91802349480124","display_name":"Great Britain, Ribble Valley, Lancashire, North West England, England, United Kingdom","class":"place","type":"island","importance":0.808770709409812,"yb_name":"Albania"},{"place_id":198203233,"licence":"Data © OpenStreetMap contributors, ODbL 1.0. https://osm.org/copyright","osm_type":"relation","osm_id":186382,"boundingbox":["41.2353929","44.2158144","22.3571459","28.8875409"],"lat":"42.6073975","lon":"25.4856617","display_name":"Bulgaria","class":"boundary","type":"administrative","importance":0.914207251896118,"icon":"https://nominatim.openstreetmap.org/images/mapicons/poi_boundary_administrative.p.20.png","yb_name":"Albania"},{"place_id":198789689,"licence":"Data © OpenStreetMap contributors, ODbL 1.0. https://osm.org/copyright","osm_type":"relation","osm_id":192783,"boundingbox":["9.4104718","15.084","-5.513207","2.4089717"],"lat":"12.0753083","lon":"-1.6880314","display_name":"Burkina Faso","class":"boundary","type":"administrative","importance":0.799700739427041,"icon":"https://nominatim.openstreetmap.org/images/mapicons/poi_boundary_administrative.p.20.png","yb_name":"Albania"},{"place_id":198374289,"licence":"Data © OpenStreetMap contributors, ODbL 1.0. https://osm.org/copyright","osm_type":"relation","osm_id":195269,"boundingbox":["-4.4693155","-2.3096796","29.0007401","30.8498462"],"lat":"-3.3634357","lon":"29.8870575","display_name":"Burundi","class":"boundary","type":"administrative","importance":0.779647067893065,"icon":"https://nominatim.openstreetmap.org/images/mapicons/poi_boundary_administrative.p.20.png","yb_name":"Albania"},{"place_id":197709244,"licence":"Data © OpenStreetMap contributors, ODbL 1.0. https://osm.org/copyright","osm_type":"relation","osm_id":49898,"boundingbox":["9.4752639","14.6904224","102.3338282","107.6276788"],"lat":"13.5066394","lon":"104.869423","display_name":"Cambodia","class":"boundary","type":"administrative","importance":0.8207825911940699,"icon":"https://nominatim.openstreetmap.org/images/mapicons/poi_boundary_administrative.p.20.png","yb_name":"Albania"},{"place_id":198169015,"licence":"Data © OpenStreetMap contributors, ODbL 1.0. https://osm.org/copyright","osm_type":"relation","osm_id":192830,"boundingbox":["1.6546659","13.083333","8.3822176","16.1921476"],"lat":"4.6125522","lon":"13.1535811","display_name":"Cameroon","class":"boundary","type":"administrative","importance":0.835219153406665,"icon":"https://nominatim.openstreetmap.org/images/mapicons/poi_boundary_administrative.p.20.png","yb_name":"Albania"},{"place_id":198904141,"licence":"Data © OpenStreetMap contributors, ODbL 1.0. https://osm.org/copyright","osm_type":"relation","osm_id":1428125,"boundingbox":["41.6765556","83.3362128","-141.00275","-52.3231981"],"lat":"61.0666922","lon":"-107.9917071","display_name":"Canada","class":"boundary","type":"administrative","importance":0.999098284193937,"icon":"https://nominatim.openstreetmap.org/images/mapicons/poi_boundary_administrative.p.20.png","yb_name":"Albania"},{"place_id":198335270,"licence":"Data © OpenStreetMap contributors, ODbL 1.0. https://osm.org/copyright","osm_type":"relation","osm_id":535774,"boundingbox":["14.6066229","17.407117","-25.5731073","-22.4547752"],"lat":"16.0000552","lon":"-24.0083947","display_name":"Cape Verde","class":"boundary","type":"administrative","importance":0.8300580358573779,"icon":"https://nominatim.openstreetmap.org/images/mapicons/poi_boundary_administrative.p.20.png","yb_name":"Albania"},{"place_id":198639005,"licence":"Data © OpenStreetMap contributors, ODbL 1.0. https://osm.org/copyright","osm_type":"relation","osm_id":2185366,"boundingbox":["19.0620619","19.9573759","-81.6313748","-79.5110954"],"lat":"19.5417212","lon":"-80.5667132","display_name":"Cayman Islands","class":"boundary","type":"administrative","importance":0.7809012813679901,"icon":"https://nominatim.openstreetmap.org/images/mapicons/poi_boundary_administrative.p.20.png","yb_name":"Albania"},{"place_id":198153670,"licence":"Data © OpenStreetMap contributors, ODbL 1.0. https://osm.org/copyright","osm_type":"relation","osm_id":192790,"boundingbox":["2.2053898","11.001389","14.4155426","27.4665499"],"lat":"7.0323598","lon":"19.9981227","display_name":"Central African Republic","class":"boundary","type":"administrative","importance":0.819066419747838,"icon":"https://nominatim.openstreetmap.org/images/mapicons/poi_boundary_administrative.p.20.png","yb_name":"Albania"},{"place_id":198672310,"licence":"Data © OpenStreetMap contributors, ODbL 1.0. https://osm.org/copyright","osm_type":"relation","osm_id":2361304,"boundingbox":["7.44107","23.4975","13.47348","24"],"lat":"15.6134137","lon":"19.0156172","display_name":"Chad","class":"boundary","type":"administrative","importance":0.794551926714845,"icon":"https://nominatim.openstreetmap.org/images/mapicons/poi_boundary_administrative.p.20.png","yb_name":"Albania"},{"place_id":198186566,"licence":"Data © OpenStreetMap contributors, ODbL 1.0. https://osm.org/copyright","osm_type":"relation","osm_id":167454,"boundingbox":["-56.725","-17.4983998","-109.6795789","-66.0753474"],"lat":"-31.7613365","lon":"-71.3187697","display_name":"Chile","class":"boundary","type":"administrative","importance":0.90744086701774,"icon":"https://nominatim.openstreetmap.org/images/mapicons/poi_boundary_administrative.p.20.png","yb_name":"Albania"},{"place_id":199263513,"licence":"Data © OpenStreetMap contributors, ODbL 1.0. https://osm.org/copyright","osm_type":"relation","osm_id":3819479,"boundingbox":["5.083","9.189","148.9672159","154.0233973"],"lat":"7.4393793","lon":"151.8515538","display_name":"Chuuk, Federated States of Micronesia","class":"boundary","type":"administrative","importance":0.597033172759567,"icon":"https://nominatim.openstreetmap.org/images/mapicons/poi_boundary_administrative.p.20.png","yb_name":"Albania"},{"place_id":197766987,"licence":"Data © OpenStreetMap contributors, ODbL 1.0. https://osm.org/copyright","osm_type":"relation","osm_id":120027,"boundingbox":["-4.2316872","16.0571269","-82.1243666","-66.8511907"],"lat":"2.8894434","lon":"-73.783892","display_name":"Colombia","class":"boundary","type":"administrative","importance":0.903685623673027,"icon":"https://nominatim.openstreetmap.org/images/mapicons/poi_boundary_administrative.p.20.png","yb_name":"Albania"},{"place_id":198128692,"licence":"Data © OpenStreetMap contributors, ODbL 1.0. https://osm.org/copyright","osm_type":"relation","osm_id":192795,"boundingbox":["-13.459035","5.3920026","12.039074","31.3056758"],"lat":"-2.9814344","lon":"23.8222636","display_name":"DR Congo","class":"boundary","type":"administrative","importance":0.704283511622175,"icon":"https://nominatim.openstreetmap.org/images/mapicons/poi_boundary_administrative.p.20.png","yb_name":"Albania"},{"place_id":198207587,"licence":"Data © OpenStreetMap contributors, ODbL 1.0. https://osm.org/copyright","osm_type":"relation","osm_id":192794,"boundingbox":["-5.149089","3.713056","11.0048205","18.643611"],"lat":"-0.7264327","lon":"15.6419155","display_name":"Congo-Brazzaville","class":"boundary","type":"administrative","importance":0.683395135434691,"icon":"https://nominatim.openstreetmap.org/images/mapicons/poi_boundary_administrative.p.20.png","yb_name":"Albania"},{"place_id":198594248,"licence":"Data © OpenStreetMap contributors, ODbL 1.0. https://osm.org/copyright","osm_type":"relation","osm_id":2184233,"boundingbox":["-22.15807","-8.7168792","-166.0856468","-157.1089329"],"lat":"-16.0492781","lon":"-160.3554851","display_name":"Cook Islands","class":"boundary","type":"administrative","importance":0.7817274841776549,"icon":"https://nominatim.openstreetmap.org/images/mapicons/poi_boundary_administrative.p.20.png","yb_name":"Albania"},{"place_id":198198583,"licence":"Data © OpenStreetMap contributors, ODbL 1.0. https://osm.org/copyright","osm_type":"relation","osm_id":287667,"boundingbox":["5.3329698","11.2195684","-87.2722647","-82.5060208"],"lat":"10.2735633","lon":"-84.0739102","display_name":"Costa Rica","class":"boundary","type":"administrative","importance":0.8487594313548721,"icon":"https://nominatim.openstreetmap.org/images/mapicons/poi_boundary_administrative.p.20.png","yb_name":"Albania"},{"place_id":198742115,"licence":"Data © OpenStreetMap contributors, ODbL 1.0. https://osm.org/copyright","osm_type":"relation","osm_id":192779,"boundingbox":["4.1621205","10.740197","-8.601725","-2.493031"],"lat":"7.9897371","lon":"-5.5679458","display_name":"Côte d'Ivoire","class":"boundary","type":"administrative","importance":0.8524077632911331,"icon":"https://nominatim.openstreetmap.org/images/mapicons/poi_boundary_administrative.p.20.png","yb_name":"Albania"},{"place_id":198746961,"licence":"Data © OpenStreetMap contributors, ODbL 1.0. https://osm.org/copyright","osm_type":"relation","osm_id":214885,"boundingbox":["42.1765993","46.555029","13.2104814","19.4470842"],"lat":"45.5643442","lon":"17.0118954","display_name":"Croatia","class":"boundary","type":"administrative","importance":0.913577387927062,"icon":"https://nominatim.openstreetmap.org/images/mapicons/poi_boundary_administrative.p.20.png","yb_name":"Albania"},{"place_id":198175873,"licence":"Data © OpenStreetMap contributors, ODbL 1.0. https://osm.org/copyright","osm_type":"relation","osm_id":307833,"boundingbox":["19.6275294","23.4816972","-85.1679702","-73.9190004"],"lat":"23.0131338","lon":"-80.8328748","display_name":"Cuba","class":"boundary","type":"administrative","importance":0.87864284737627,"icon":"https://nominatim.openstreetmap.org/images/mapicons/poi_boundary_administrative.p.20.png","yb_name":"Albania"},{"place_id":198176461,"licence":"Data © OpenStreetMap contributors, ODbL 1.0. https://osm.org/copyright","osm_type":"relation","osm_id":1216719,"boundingbox":["11.777","12.592","-69.3673493","-68.4413473"],"lat":"12.1845","lon":"-68.9640918594077","display_name":"Curacao, Netherlands","class":"boundary","type":"administrative","importance":0.721760430651991,"icon":"https://nominatim.openstreetmap.org/images/mapicons/poi_boundary_administrative.p.20.png","yb_name":"Albania"},{"place_id":3957059,"licence":"Data © OpenStreetMap contributors, ODbL 1.0. https://osm.org/copyright","osm_type":"node","osm_id":424313406,"boundingbox":["27.4823018","42.4823018","25.6451285","40.6451285"],"lat":"34.9823018","lon":"33.1451285","display_name":"Cyprus","class":"place","type":"country","importance":0.84306957465099,"icon":"https://nominatim.openstreetmap.org/images/mapicons/poi_boundary_administrative.p.20.png","yb_name":"Albania"},{"place_id":198038226,"licence":"Data © OpenStreetMap contributors, ODbL 1.0. https://osm.org/copyright","osm_type":"relation","osm_id":51684,"boundingbox":["48.5518083","51.0557036","12.0905901","18.859216"],"lat":"49.8167003","lon":"15.4749544","display_name":"Czechia","class":"boundary","type":"administrative","importance":0.914362883567314,"icon":"https://nominatim.openstreetmap.org/images/mapicons/poi_boundary_administrative.p.20.png","yb_name":"Albania"},{"place_id":198036150,"licence":"Data © OpenStreetMap contributors, ODbL 1.0. https://osm.org/copyright","osm_type":"relation","osm_id":50046,"boundingbox":["54.4516667","57.9524297","7.7153255","15.5530641"],"lat":"55.670249","lon":"10.3333283","display_name":"Denmark","class":"boundary","type":"administrative","importance":0.942215312866484,"icon":"https://nominatim.openstreetmap.org/images/mapicons/poi_boundary_administrative.p.20.png","yb_name":"Albania"},{"place_id":197988216,"licence":"Data © OpenStreetMap contributors, ODbL 1.0. https://osm.org/copyright","osm_type":"relation","osm_id":307823,"boundingbox":["15.0074207","15.7872222","-61.6869184","-61.0329895"],"lat":"15.4113138","lon":"-61.3653618","display_name":"Dominica","class":"boundary","type":"administrative","importance":0.754539370069609,"icon":"https://nominatim.openstreetmap.org/images/mapicons/poi_boundary_administrative.p.20.png","yb_name":"Albania"},{"place_id":198216597,"licence":"Data © OpenStreetMap contributors, ODbL 1.0. https://osm.org/copyright","osm_type":"relation","osm_id":307828,"boundingbox":["17.2701708","21.2928771","-72.0574706","-68.1101463"],"lat":"19.0974031","lon":"-70.3028026","display_name":"D.R.","class":"boundary","type":"administrative","importance":0.650138375313756,"icon":"https://nominatim.openstreetmap.org/images/mapicons/poi_boundary_administrative.p.20.png","yb_name":"Albania"},{"place_id":198061827,"licence":"Data © OpenStreetMap contributors, ODbL 1.0. https://osm.org/copyright","osm_type":"relation","osm_id":108089,"boundingbox":["-5.0159314","1.8835964","-92.2072392","-75.192504"],"lat":"-1.3397668","lon":"-79.3666965","display_name":"Ecuador","class":"boundary","type":"administrative","importance":0.865864067016097,"icon":"https://nominatim.openstreetmap.org/images/mapicons/poi_boundary_administrative.p.20.png","yb_name":"Albania"},{"place_id":198322204,"licence":"Data © OpenStreetMap contributors, ODbL 1.0. https://osm.org/copyright","osm_type":"relation","osm_id":1520612,"boundingbox":["12.976046","14.4510488","-90.1790975","-87.6351394"],"lat":"13.8000382","lon":"-88.9140683","display_name":"El Salvador","class":"boundary","type":"administrative","importance":0.8662706568294061,"icon":"https://nominatim.openstreetmap.org/images/mapicons/poi_boundary_administrative.p.20.png","yb_name":"Albania"},{"place_id":198371911,"licence":"Data © OpenStreetMap contributors, ODbL 1.0. https://osm.org/copyright","osm_type":"relation","osm_id":192791,"boundingbox":["-1.6732196","3.989","5.4172943","11.3598628"],"lat":"1.613172","lon":"10.5170357","display_name":"Equatorial Guinea","class":"boundary","type":"administrative","importance":0.7691737926340969,"icon":"https://nominatim.openstreetmap.org/images/mapicons/poi_boundary_administrative.p.20.png","yb_name":"Albania"},{"place_id":197461108,"licence":"Data © OpenStreetMap contributors, ODbL 1.0. https://osm.org/copyright","osm_type":"relation","osm_id":79510,"boundingbox":["57.5092997","59.9383754","21.3826069","28.2100175"],"lat":"58.7523778","lon":"25.3319078","display_name":"Estonia","class":"boundary","type":"administrative","importance":0.885937449267187,"icon":"https://nominatim.openstreetmap.org/images/mapicons/poi_boundary_administrative.p.20.png","yb_name":"Albania"},{"place_id":197714297,"licence":"Data © OpenStreetMap contributors, ODbL 1.0. https://osm.org/copyright","osm_type":"relation","osm_id":192800,"boundingbox":["3.397448","14.8940537","32.9975838","47.9823797"],"lat":"10.2116702","lon":"38.6521203","display_name":"Ethiopia","class":"boundary","type":"administrative","importance":0.853193691628327,"icon":"https://nominatim.openstreetmap.org/images/mapicons/poi_boundary_administrative.p.20.png","yb_name":"Albania"},{"place_id":198491164,"licence":"Data © OpenStreetMap contributors, ODbL 1.0. https://osm.org/copyright","osm_type":"relation","osm_id":2185374,"boundingbox":["-53.1186766","-50.7973007","-61.7726772","-57.3662367"],"lat":"-51.9666424","lon":"-59.5500387","display_name":"Falkland Islands","class":"boundary","type":"administrative","importance":0.8051212531468941,"icon":"https://nominatim.openstreetmap.org/images/mapicons/poi_boundary_administrative.p.20.png","yb_name":"Albania"},{"place_id":197684092,"licence":"Data © OpenStreetMap contributors, ODbL 1.0. https://osm.org/copyright","osm_type":"relation","osm_id":52939,"boundingbox":["61.2880991","62.4476162","-7.7983834","-6.1413262"],"lat":"62.0448724","lon":"-7.0322972","display_name":"Faroe Islands","class":"boundary","type":"administrative","importance":0.8501300269247529,"icon":"https://nominatim.openstreetmap.org/images/mapicons/poi_boundary_administrative.p.20.png","yb_name":"Albania"},{"place_id":198299814,"licence":"Data © OpenStreetMap contributors, ODbL 1.0. https://osm.org/copyright","osm_type":"relation","osm_id":571747,"boundingbox":["-21.9434274","-12.2613866","-180","180"],"lat":"-18.1239696","lon":"179.0122737","display_name":"Fiji","class":"boundary","type":"administrative","importance":0.797756352576226,"icon":"https://nominatim.openstreetmap.org/images/mapicons/poi_boundary_administrative.p.20.png","yb_name":"Albania"},{"place_id":197712576,"licence":"Data © OpenStreetMap contributors, ODbL 1.0. https://osm.org/copyright","osm_type":"relation","osm_id":54224,"boundingbox":["59.4541578","70.0922939","19.0832098","31.5867071"],"lat":"63.2467777","lon":"25.9209164","display_name":"Finland","class":"boundary","type":"administrative","importance":0.9393347932322,"icon":"https://nominatim.openstreetmap.org/images/mapicons/poi_boundary_administrative.p.20.png","yb_name":"Albania"},{"place_id":198319371,"licence":"Data © OpenStreetMap contributors, ODbL 1.0. https://osm.org/copyright","osm_type":"relation","osm_id":2202162,"boundingbox":["-50.2187169","51.268318","-178.3873749","172.3057152"],"lat":"46.603354","lon":"1.8883335","display_name":"France","class":"boundary","type":"administrative","importance":1.0712226863486611,"icon":"https://nominatim.openstreetmap.org/images/mapicons/poi_boundary_administrative.p.20.png","yb_name":"Albania"},{"place_id":198421491,"licence":"Data © OpenStreetMap contributors, ODbL 1.0. https://osm.org/copyright","osm_type":"relation","osm_id":2202121,"boundingbox":["2.1109401","5.7481156","-54.6026945","-51.6346139"],"lat":"4.0039882","lon":"-52.999998","display_name":"French Guiana, France","class":"boundary","type":"administrative","importance":0.780948099310036,"icon":"https://nominatim.openstreetmap.org/images/mapicons/poi_boundary_administrative.p.20.png","yb_name":"Albania"},{"place_id":198742561,"licence":"Data © OpenStreetMap contributors, ODbL 1.0. https://osm.org/copyright","osm_type":"relation","osm_id":192793,"boundingbox":["-4.1012261","2.3182171","8.5002246","14.539444"],"lat":"-0.8999695","lon":"11.6899699","display_name":"Gabon","class":"boundary","type":"administrative","importance":0.797660956807043,"icon":"https://nominatim.openstreetmap.org/images/mapicons/poi_boundary_administrative.p.20.png","yb_name":"Albania"},{"place_id":198168797,"licence":"Data © OpenStreetMap contributors, ODbL 1.0. https://osm.org/copyright","osm_type":"relation","osm_id":192774,"boundingbox":["13.061","13.8253137","-17.0288254","-13.797778"],"lat":"13.470062","lon":"-15.4900464","display_name":"The Gambia","class":"boundary","type":"administrative","importance":0.766346106078587,"icon":"https://nominatim.openstreetmap.org/images/mapicons/poi_boundary_administrative.p.20.png","yb_name":"Albania"},{"place_id":198646501,"licence":"Data © OpenStreetMap contributors, ODbL 1.0. https://osm.org/copyright","osm_type":"relation","osm_id":28699,"boundingbox":["41.0552922","43.5864294","39.8844803","46.7365373"],"lat":"41.6809707","lon":"44.0287382","display_name":"Georgia","class":"boundary","type":"administrative","importance":0.857202706323703,"icon":"https://nominatim.openstreetmap.org/images/mapicons/poi_boundary_administrative.p.20.png","yb_name":"Albania"},{"place_id":198664929,"licence":"Data © OpenStreetMap contributors, ODbL 1.0. https://osm.org/copyright","osm_type":"relation","osm_id":51477,"boundingbox":["47.2701114","55.099161","5.8663153","15.0419319"],"lat":"51.0834196","lon":"10.4234469","display_name":"Germany","class":"boundary","type":"administrative","importance":1.040641126934625,"icon":"https://nominatim.openstreetmap.org/images/mapicons/poi_boundary_administrative.p.20.png","yb_name":"Albania"},{"place_id":198127115,"licence":"Data © OpenStreetMap contributors, ODbL 1.0. https://osm.org/copyright","osm_type":"relation","osm_id":192781,"boundingbox":["4.5392525","11.1748562","-3.260786","1.2732942"],"lat":"8.0300284","lon":"-1.0800271","display_name":"Ghana","class":"boundary","type":"administrative","importance":0.833996959451236,"icon":"https://nominatim.openstreetmap.org/images/mapicons/poi_boundary_administrative.p.20.png","yb_name":"Albania"},{"place_id":770704,"licence":"Data © OpenStreetMap contributors, ODbL 1.0. https://osm.org/copyright","osm_type":"node","osm_id":267933614,"boundingbox":["36.100807","36.180807","-5.3941295","-5.3141295"],"lat":"36.140807","lon":"-5.3541295","display_name":"Gibraltar, GX111AA, Gibraltar","class":"place","type":"town","importance":0.790095162098421,"icon":"https://nominatim.openstreetmap.org/images/mapicons/poi_place_town.p.20.png","yb_name":"Albania"},{"place_id":198789032,"licence":"Data © OpenStreetMap contributors, ODbL 1.0. https://osm.org/copyright","osm_type":"relation","osm_id":192307,"boundingbox":["34.7006096","41.7488862","19.2477876","29.7296986"],"lat":"38.9953683","lon":"21.9877132","display_name":"Greece","class":"boundary","type":"administrative","importance":0.935614560217377,"icon":"https://nominatim.openstreetmap.org/images/mapicons/poi_boundary_administrative.p.20.png","yb_name":"Albania"},{"place_id":258641541,"licence":"Data © OpenStreetMap contributors, ODbL 1.0. https://osm.org/copyright","osm_type":"relation","osm_id":2184073,"boundingbox":["59.515387","83.875172","-74.1250416","-10.0288759"],"lat":"77.6192349","lon":"-42.8125967","display_name":"Greenland","class":"boundary","type":"administrative","importance":0.803089260734717,"icon":"https://nominatim.openstreetmap.org/images/mapicons/poi_boundary_administrative.p.20.png","yb_name":"Albania"},{"place_id":198321043,"licence":"Data © OpenStreetMap contributors, ODbL 1.0. https://osm.org/copyright","osm_type":"relation","osm_id":550727,"boundingbox":["11.786","12.5966532","-62.0065868","-61.1732143"],"lat":"12.1360374","lon":"-61.6904045","display_name":"Grenada","class":"boundary","type":"administrative","importance":0.757802536930448,"icon":"https://nominatim.openstreetmap.org/images/mapicons/poi_boundary_administrative.p.20.png","yb_name":"Albania"},{"place_id":198069217,"licence":"Data © OpenStreetMap contributors, ODbL 1.0. https://osm.org/copyright","osm_type":"relation","osm_id":1047206,"boundingbox":["15.8320085","16.5145161","-61.809764","-61.0003663"],"lat":"16.2490067","lon":"-61.5650444","display_name":"Guadeloupe, France","class":"boundary","type":"administrative","importance":0.770100669272447,"icon":"https://nominatim.openstreetmap.org/images/mapicons/poi_boundary_administrative.p.20.png","yb_name":"Albania"},{"place_id":198396883,"licence":"Data © OpenStreetMap contributors, ODbL 1.0. https://osm.org/copyright","osm_type":"relation","osm_id":1152532,"boundingbox":["13.2459915","13.654381","144.6183206","144.9569582"],"lat":"13.4501257","lon":"144.757551029721","display_name":"Guam, Chalan Pago-Ordot Municipality, Guam, United States of America (Guam)","class":"place","type":"island","importance":0.77849486443435,"yb_name":"Albania"},{"place_id":198925304,"licence":"Data © OpenStreetMap contributors, ODbL 1.0. https://osm.org/copyright","osm_type":"relation","osm_id":1521463,"boundingbox":["13.6345804","17.8165947","-92.3105242","-88.1755849"],"lat":"15.6356088","lon":"-89.8988087","display_name":"Guatemala","class":"boundary","type":"administrative","importance":0.834080244819075,"icon":"https://nominatim.openstreetmap.org/images/mapicons/poi_boundary_administrative.p.20.png","yb_name":"Albania"},{"place_id":197696776,"licence":"Data © OpenStreetMap contributors, ODbL 1.0. https://osm.org/copyright","osm_type":"relation","osm_id":192778,"boundingbox":["7.1906045","12.67563","-15.5680508","-7.6379222"],"lat":"10.7226226","lon":"-10.7083587","display_name":"Guinea","class":"boundary","type":"administrative","importance":0.794034997219305,"icon":"https://nominatim.openstreetmap.org/images/mapicons/poi_boundary_administrative.p.20.png","yb_name":"Albania"},{"place_id":198153309,"licence":"Data © OpenStreetMap contributors, ODbL 1.0. https://osm.org/copyright","osm_type":"relation","osm_id":192776,"boundingbox":["10.6514215","12.6862384","-16.894523","-13.6348777"],"lat":"12.100035","lon":"-14.9000214","display_name":"Guinea-Bissau","class":"boundary","type":"administrative","importance":0.8468843997903681,"icon":"https://nominatim.openstreetmap.org/images/mapicons/poi_boundary_administrative.p.20.png","yb_name":"Albania"},{"place_id":198759952,"licence":"Data © OpenStreetMap contributors, ODbL 1.0. https://osm.org/copyright","osm_type":"relation","osm_id":287083,"boundingbox":["1.1710017","8.6038842","-61.414905","-56.4689543"],"lat":"4.8417097","lon":"-58.6416891","display_name":"Guyana","class":"boundary","type":"administrative","importance":0.7966607200811879,"icon":"https://nominatim.openstreetmap.org/images/mapicons/poi_boundary_administrative.p.20.png","yb_name":"Albania"},{"place_id":198407589,"licence":"Data © OpenStreetMap contributors, ODbL 1.0. https://osm.org/copyright","osm_type":"relation","osm_id":307829,"boundingbox":["17.9099291","20.2181368","-75.2384618","-71.6217461"],"lat":"19.1399952","lon":"-72.3570972","display_name":"Haiti","class":"boundary","type":"administrative","importance":0.812777796831659,"icon":"https://nominatim.openstreetmap.org/images/mapicons/poi_boundary_administrative.p.20.png","yb_name":"Albania"},{"place_id":197766241,"licence":"Data © OpenStreetMap contributors, ODbL 1.0. https://osm.org/copyright","osm_type":"relation","osm_id":287670,"boundingbox":["12.9808485","17.619526","-89.3568207","-82.1729621"],"lat":"15.2572432","lon":"-86.0755145","display_name":"Honduras","class":"boundary","type":"administrative","importance":0.8205199494180719,"icon":"https://nominatim.openstreetmap.org/images/mapicons/poi_boundary_administrative.p.20.png","yb_name":"Albania"},{"place_id":236164134,"licence":"Data © OpenStreetMap contributors, ODbL 1.0. https://osm.org/copyright","osm_type":"relation","osm_id":913110,"boundingbox":["22.1368439","22.5683333","113.81735","114.5025725"],"lat":"22.350627","lon":"114.1849161","display_name":"Hong Kong, China","class":"boundary","type":"administrative","importance":0.9733025718788211,"icon":"https://nominatim.openstreetmap.org/images/mapicons/poi_boundary_administrative.p.20.png","yb_name":"Albania"},{"place_id":198645167,"licence":"Data © OpenStreetMap contributors, ODbL 1.0. https://osm.org/copyright","osm_type":"relation","osm_id":21335,"boundingbox":["45.737128","48.585257","16.1138866","22.8977094"],"lat":"47.1817585","lon":"19.5060937","display_name":"Hungary","class":"boundary","type":"administrative","importance":0.939254354529067,"icon":"https://nominatim.openstreetmap.org/images/mapicons/poi_boundary_administrative.p.20.png","yb_name":"Albania"},{"place_id":198204189,"licence":"Data © OpenStreetMap contributors, ODbL 1.0. https://osm.org/copyright","osm_type":"relation","osm_id":299133,"boundingbox":["63.0859177","67.353","-25.0135069","-12.8046162"],"lat":"64.9841821","lon":"-18.1059013","display_name":"Iceland","class":"boundary","type":"administrative","importance":0.864945434746935,"icon":"https://nominatim.openstreetmap.org/images/mapicons/poi_boundary_administrative.p.20.png","yb_name":"Albania"},{"place_id":197806979,"licence":"Data © OpenStreetMap contributors, ODbL 1.0. https://osm.org/copyright","osm_type":"relation","osm_id":304716,"boundingbox":["6.2325274","35.6745457","68.1113787","97.395561"],"lat":"22.3511148","lon":"78.6677428","display_name":"India","class":"boundary","type":"administrative","importance":0.9724434063848549,"icon":"https://nominatim.openstreetmap.org/images/mapicons/poi_boundary_administrative.p.20.png","yb_name":"Albania"},{"place_id":198765943,"licence":"Data © OpenStreetMap contributors, ODbL 1.0. https://osm.org/copyright","osm_type":"relation","osm_id":304751,"boundingbox":["-11.2085669","6.2744496","94.7717124","141.0200345"],"lat":"-2.49599765","lon":"120.200165645358","display_name":"Indonesia","class":"boundary","type":"administrative","importance":0.937549909619719,"icon":"https://nominatim.openstreetmap.org/images/mapicons/poi_boundary_administrative.p.20.png","yb_name":"Albania"},{"place_id":198018801,"licence":"Data © OpenStreetMap contributors, ODbL 1.0. https://osm.org/copyright","osm_type":"relation","osm_id":62273,"boundingbox":["51.222","55.636","-11.0133788","-5.6582363"],"lat":"52.865196","lon":"-7.9794599","display_name":"Ireland","class":"boundary","type":"administrative","importance":0.897260063875608,"icon":"https://nominatim.openstreetmap.org/images/mapicons/poi_boundary_administrative.p.20.png","yb_name":"Albania"},{"place_id":198144742,"licence":"Data © OpenStreetMap contributors, ODbL 1.0. https://osm.org/copyright","osm_type":"relation","osm_id":1473946,"boundingbox":["29.4533796","33.3356317","34.2674994","35.8950234"],"lat":"30.8760272","lon":"35.0015196","display_name":"Israel","class":"boundary","type":"administrative","importance":0.9310824880455559,"icon":"https://nominatim.openstreetmap.org/images/mapicons/poi_boundary_administrative.p.20.png","yb_name":"Albania"},{"place_id":198210698,"licence":"Data © OpenStreetMap contributors, ODbL 1.0. https://osm.org/copyright","osm_type":"relation","osm_id":365331,"boundingbox":["35.2889616","47.0921462","6.6272658","18.7844746"],"lat":"42.6384261","lon":"12.674297","display_name":"Italy","class":"boundary","type":"administrative","importance":1.0288940045855481,"icon":"https://nominatim.openstreetmap.org/images/mapicons/poi_boundary_administrative.p.20.png","yb_name":"Albania"},{"place_id":198298427,"licence":"Data © OpenStreetMap contributors, ODbL 1.0. https://osm.org/copyright","osm_type":"relation","osm_id":555017,"boundingbox":["16.5899443","18.7256394","-78.5782366","-75.7541143"],"lat":"18.1850507","lon":"-77.3947693","display_name":"Jamaica","class":"boundary","type":"administrative","importance":0.840003623110243,"icon":"https://nominatim.openstreetmap.org/images/mapicons/poi_boundary_administrative.p.20.png","yb_name":"Albania"},{"place_id":198216605,"licence":"Data © OpenStreetMap contributors, ODbL 1.0. https://osm.org/copyright","osm_type":"relation","osm_id":382313,"boundingbox":["20.2145811","45.7112046","122.7141754","154.205541"],"lat":"36.5748441","lon":"139.2394179","display_name":"Japan","class":"boundary","type":"administrative","importance":1.016709223998707,"icon":"https://nominatim.openstreetmap.org/images/mapicons/poi_boundary_administrative.p.20.png","yb_name":"Albania"},{"place_id":198794395,"licence":"Data © OpenStreetMap contributors, ODbL 1.0. https://osm.org/copyright","osm_type":"relation","osm_id":214665,"boundingbox":["40.5686476","55.4421701","46.4932179","87.3156316"],"lat":"47.2286086","lon":"65.2093197","display_name":"Kazakhstan","class":"boundary","type":"administrative","importance":0.876400290433607,"icon":"https://nominatim.openstreetmap.org/images/mapicons/poi_boundary_administrative.p.20.png","yb_name":"Albania"},{"place_id":197669113,"licence":"Data © OpenStreetMap contributors, ODbL 1.0. https://osm.org/copyright","osm_type":"relation","osm_id":192798,"boundingbox":["-4.8995204","4.62","33.9098987","41.9067502"],"lat":"1.4419683","lon":"38.4313975","display_name":"Kenya","class":"boundary","type":"administrative","importance":0.854324638346187,"icon":"https://nominatim.openstreetmap.org/images/mapicons/poi_boundary_administrative.p.20.png","yb_name":"Albania"},{"place_id":198018840,"licence":"Data © OpenStreetMap contributors, ODbL 1.0. https://osm.org/copyright","osm_type":"relation","osm_id":571178,"boundingbox":["-11.646","4.9","-174.743355","177.0479136"],"lat":"0.4483283","lon":"-171.6645388","display_name":"Kiribati","class":"boundary","type":"administrative","importance":0.744443305047904,"icon":"https://nominatim.openstreetmap.org/images/mapicons/poi_boundary_administrative.p.20.png","yb_name":"Albania"},{"place_id":198220979,"licence":"Data © OpenStreetMap contributors, ODbL 1.0. https://osm.org/copyright","osm_type":"relation","osm_id":307756,"boundingbox":["32.9104556","38.623477","124.354847","132.1467806"],"lat":"36.5581914","lon":"127.9408564","display_name":"South Korea","class":"boundary","type":"administrative","importance":0.850876924201597,"icon":"https://nominatim.openstreetmap.org/images/mapicons/poi_boundary_administrative.p.20.png","yb_name":"Albania"},{"place_id":251425416,"licence":"Data © OpenStreetMap contributors, ODbL 1.0. https://osm.org/copyright","osm_type":"relation","osm_id":2088990,"boundingbox":["41.8577007","43.2678105","20.0140589","21.7894228"],"lat":"42.5869578","lon":"20.9021231","display_name":"Kosovo","class":"boundary","type":"administrative","importance":0.796919419726792,"icon":"https://nominatim.openstreetmap.org/images/mapicons/poi_boundary_administrative.p.20.png","yb_name":"Albania"},{"place_id":198850938,"licence":"Data © OpenStreetMap contributors, ODbL 1.0. https://osm.org/copyright","osm_type":"relation","osm_id":3819480,"boundingbox":["5.059","5.569","162.6980842","163.2364054"],"lat":"5.3239584","lon":"162.9852845","display_name":"Kosrae, Federated States of Micronesia","class":"boundary","type":"administrative","importance":0.66,"icon":"https://nominatim.openstreetmap.org/images/mapicons/poi_boundary_administrative.p.20.png","yb_name":"Albania"},{"place_id":198734903,"licence":"Data © OpenStreetMap contributors, ODbL 1.0. https://osm.org/copyright","osm_type":"relation","osm_id":178009,"boundingbox":["39.1727382","43.2667971","69.2649523","80.2295793"],"lat":"41.5089324","lon":"74.724091","display_name":"Kyrgyzstan","class":"boundary","type":"administrative","importance":0.813712498055425,"icon":"https://nominatim.openstreetmap.org/images/mapicons/poi_boundary_administrative.p.20.png","yb_name":"Albania"},{"place_id":197449445,"licence":"Data © OpenStreetMap contributors, ODbL 1.0. https://osm.org/copyright","osm_type":"relation","osm_id":72594,"boundingbox":["55.6746505","58.0855688","20.6715407","28.2414904"],"lat":"56.8406494","lon":"24.7537645","display_name":"Latvia","class":"boundary","type":"administrative","importance":0.873624586844681,"icon":"https://nominatim.openstreetmap.org/images/mapicons/poi_boundary_administrative.p.20.png","yb_name":"Albania"},{"place_id":198583904,"licence":"Data © OpenStreetMap contributors, ODbL 1.0. https://osm.org/copyright","osm_type":"relation","osm_id":2093234,"boundingbox":["-30.6772773","-28.570615","27.0114632","29.4557099"],"lat":"-29.6039267","lon":"28.3350193","display_name":"Lesotho","class":"boundary","type":"administrative","importance":0.768265904764452,"icon":"https://nominatim.openstreetmap.org/images/mapicons/poi_boundary_administrative.p.20.png","yb_name":"Albania"},{"place_id":198207032,"licence":"Data © OpenStreetMap contributors, ODbL 1.0. https://osm.org/copyright","osm_type":"relation","osm_id":192780,"boundingbox":["4.1555907","8.5519861","-11.6080764","-7.367323"],"lat":"5.7499721","lon":"-9.3658524","display_name":"Liberia","class":"boundary","type":"administrative","importance":0.791694777109646,"icon":"https://nominatim.openstreetmap.org/images/mapicons/poi_boundary_administrative.p.20.png","yb_name":"Albania"},{"place_id":198931338,"licence":"Data © OpenStreetMap contributors, ODbL 1.0. https://osm.org/copyright","osm_type":"relation","osm_id":1155955,"boundingbox":["47.0484291","47.270581","9.4716736","9.6357143"],"lat":"47.1416307","lon":"9.5531527","display_name":"Liechtenstein","class":"boundary","type":"administrative","importance":0.793180662378855,"icon":"https://nominatim.openstreetmap.org/images/mapicons/poi_boundary_administrative.p.20.png","yb_name":"Albania"},{"place_id":197464526,"licence":"Data © OpenStreetMap contributors, ODbL 1.0. https://osm.org/copyright","osm_type":"relation","osm_id":72596,"boundingbox":["53.8967893","56.4504213","20.6557167","26.8355198"],"lat":"55.3500003","lon":"23.7499997","display_name":"Lithuania","class":"boundary","type":"administrative","importance":0.892656885451309,"icon":"https://nominatim.openstreetmap.org/images/mapicons/poi_boundary_administrative.p.20.png","yb_name":"Albania"},{"place_id":199105283,"licence":"Data © OpenStreetMap contributors, ODbL 1.0. https://osm.org/copyright","osm_type":"relation","osm_id":2171347,"boundingbox":["49.4478539","50.1827958","5.7357006","6.5312481"],"lat":"49.8158683","lon":"6.1296751","display_name":"Luxembourg","class":"boundary","type":"administrative","importance":0.8565736049136,"icon":"https://nominatim.openstreetmap.org/images/mapicons/poi_boundary_administrative.p.20.png","yb_name":"Albania"},{"place_id":198575539,"licence":"Data © OpenStreetMap contributors, ODbL 1.0. https://osm.org/copyright","osm_type":"relation","osm_id":1867188,"boundingbox":["22.0766667","22.2170361","113.5281666","113.6301389"],"lat":"22.1757605","lon":"113.5514142","display_name":"Macau, China","class":"boundary","type":"administrative","importance":0.671104355587062,"icon":"https://nominatim.openstreetmap.org/images/mapicons/poi_boundary_administrative.p.20.png","yb_name":"Albania"},{"place_id":198021110,"licence":"Data © OpenStreetMap contributors, ODbL 1.0. https://osm.org/copyright","osm_type":"relation","osm_id":53293,"boundingbox":["40.8536596","42.3735359","20.4529023","23.034051"],"lat":"41.6171214","lon":"21.7168387","display_name":"Macedonia","class":"boundary","type":"administrative","importance":0.797505648947357,"icon":"https://nominatim.openstreetmap.org/images/mapicons/poi_boundary_administrative.p.20.png","yb_name":"Albania"},{"place_id":198505268,"licence":"Data © OpenStreetMap contributors, ODbL 1.0. https://osm.org/copyright","osm_type":"relation","osm_id":447325,"boundingbox":["-25.784021","-11.732889","42.9680076","50.6727307"],"lat":"-18.9249604","lon":"46.4416422","display_name":"Madagascar","class":"boundary","type":"administrative","importance":0.835576901521383,"icon":"https://nominatim.openstreetmap.org/images/mapicons/poi_boundary_administrative.p.20.png","yb_name":"Albania"},{"place_id":198265611,"licence":"Data © OpenStreetMap contributors, ODbL 1.0. https://osm.org/copyright","osm_type":"relation","osm_id":1629145,"boundingbox":["30.0287783","33.1281603","-17.2659376","-15.8536715"],"lat":"32.75174875","lon":"-16.9817520488474","display_name":"Madeira, Portugal","class":"boundary","type":"administrative","importance":0.735685329242011,"icon":"https://nominatim.openstreetmap.org/images/mapicons/poi_boundary_administrative.p.20.png","yb_name":"Albania"},{"place_id":197673787,"licence":"Data © OpenStreetMap contributors, ODbL 1.0. https://osm.org/copyright","osm_type":"relation","osm_id":195290,"boundingbox":["-17.1296031","-9.3683261","32.6703616","35.9185731"],"lat":"-13.2687204","lon":"33.9301963","display_name":"Malawi","class":"boundary","type":"administrative","importance":0.78600618396371,"icon":"https://nominatim.openstreetmap.org/images/mapicons/poi_boundary_administrative.p.20.png","yb_name":"Albania"},{"place_id":21757955,"licence":"Data © OpenStreetMap contributors, ODbL 1.0. https://osm.org/copyright","osm_type":"node","osm_id":2134362766,"boundingbox":["-5.1076241","9.8923759","105.3471939","120.3471939"],"lat":"2.3923759","lon":"112.8471939","display_name":"Malaysia","class":"place","type":"country","importance":0.896411489993041,"icon":"https://nominatim.openstreetmap.org/images/mapicons/poi_boundary_administrative.p.20.png","yb_name":"Albania"},{"place_id":197892036,"licence":"Data © OpenStreetMap contributors, ODbL 1.0. https://osm.org/copyright","osm_type":"relation","osm_id":192785,"boundingbox":["10.147811","25.001084","-12.2402835","4.2673828"],"lat":"16.3700359","lon":"-2.2900239","display_name":"Mali","class":"boundary","type":"administrative","importance":0.813890765665347,"icon":"https://nominatim.openstreetmap.org/images/mapicons/poi_boundary_administrative.p.20.png","yb_name":"Albania"},{"place_id":198048807,"licence":"Data © OpenStreetMap contributors, ODbL 1.0. https://osm.org/copyright","osm_type":"relation","osm_id":365307,"boundingbox":["35.6029696","36.2852706","13.9324226","14.8267966"],"lat":"35.8885993","lon":"14.4476911","display_name":"Malta","class":"boundary","type":"administrative","importance":0.837283385243114,"icon":"https://nominatim.openstreetmap.org/images/mapicons/poi_boundary_administrative.p.20.png","yb_name":"Albania"},{"place_id":198517993,"licence":"Data © OpenStreetMap contributors, ODbL 1.0. https://osm.org/copyright","osm_type":"relation","osm_id":571771,"boundingbox":["4.374","14.873","160.594934","172.3737007"],"lat":"6.9518742","lon":"170.9985095","display_name":"Marshall Islands","class":"boundary","type":"administrative","importance":0.7927128912123329,"icon":"https://nominatim.openstreetmap.org/images/mapicons/poi_boundary_administrative.p.20.png","yb_name":"Albania"},{"place_id":199153759,"licence":"Data © OpenStreetMap contributors, ODbL 1.0. https://osm.org/copyright","osm_type":"relation","osm_id":7112170,"boundingbox":["14.3948596","14.8787327","-61.2290255","-60.8097044"],"lat":"14.6367927","lon":"-61.0158268506373","display_name":"Martinique, Le Lamentin, Fort-de-France, Martinique, 97232, France","class":"place","type":"island","importance":0.774261697305616,"yb_name":"Albania"},{"place_id":198009386,"licence":"Data © OpenStreetMap contributors, ODbL 1.0. https://osm.org/copyright","osm_type":"relation","osm_id":535828,"boundingbox":["-20.725","-10.138","56.3825151","63.7151319"],"lat":"-20.2759451","lon":"57.5703566","display_name":"Mauritius","class":"boundary","type":"administrative","importance":0.790047060898449,"icon":"https://nominatim.openstreetmap.org/images/mapicons/poi_boundary_administrative.p.20.png","yb_name":"Albania"},{"place_id":198696876,"licence":"Data © OpenStreetMap contributors, ODbL 1.0. https://osm.org/copyright","osm_type":"relation","osm_id":3388394,"boundingbox":["-13.0210119","-12.6365902","45.0183298","45.2999917"],"lat":"-12.823048","lon":"45.1520755","display_name":"Mayotte, France","class":"boundary","type":"administrative","importance":0.749412168788797,"icon":"https://nominatim.openstreetmap.org/images/mapicons/poi_boundary_administrative.p.20.png","yb_name":"Albania"},{"place_id":257304,"licence":"Data © OpenStreetMap contributors, ODbL 1.0. https://osm.org/copyright","osm_type":"node","osm_id":62270270,"boundingbox":["19.2726009","19.5926009","-99.2933416","-98.9733416"],"lat":"19.4326009","lon":"-99.1333416","display_name":"Mexico City, Cuauhtémoc, Mexico City, 06060, Mexico","class":"place","type":"city","importance":0.944807457730147,"icon":"https://nominatim.openstreetmap.org/images/mapicons/poi_place_city.p.20.png","yb_name":"Albania"},{"place_id":197431081,"licence":"Data © OpenStreetMap contributors, ODbL 1.0. https://osm.org/copyright","osm_type":"relation","osm_id":58974,"boundingbox":["45.4672099","48.4918695","26.6164054","30.1636756"],"lat":"47.286747","lon":"28.5110236","display_name":"Moldova","class":"boundary","type":"administrative","importance":0.841062084488344,"icon":"https://nominatim.openstreetmap.org/images/mapicons/poi_boundary_administrative.p.20.png","yb_name":"Albania"},{"place_id":197833029,"licence":"Data © OpenStreetMap contributors, ODbL 1.0. https://osm.org/copyright","osm_type":"relation","osm_id":161033,"boundingbox":["41.5800276","52.1496","87.7341556","119.931949"],"lat":"46.8250388","lon":"103.8499736","display_name":"Mongolia","class":"boundary","type":"administrative","importance":0.836459670916582,"icon":"https://nominatim.openstreetmap.org/images/mapicons/poi_boundary_administrative.p.20.png","yb_name":"Albania"},{"place_id":197429655,"licence":"Data © OpenStreetMap contributors, ODbL 1.0. https://osm.org/copyright","osm_type":"relation","osm_id":53296,"boundingbox":["41.7495999","43.5585061","18.4195781","20.3561641"],"lat":"42.7728491","lon":"19.2408586","display_name":"Montenegro","class":"boundary","type":"administrative","importance":0.8189412680259189,"icon":"https://nominatim.openstreetmap.org/images/mapicons/poi_boundary_administrative.p.20.png","yb_name":"Albania"},{"place_id":198095537,"licence":"Data © OpenStreetMap contributors, ODbL 1.0. https://osm.org/copyright","osm_type":"relation","osm_id":537257,"boundingbox":["16.475","17.0152978","-62.450667","-61.9353818"],"lat":"16.7417041","lon":"-62.1916844","display_name":"Montserrat","class":"boundary","type":"administrative","importance":0.712039773386026,"icon":"https://nominatim.openstreetmap.org/images/mapicons/poi_boundary_administrative.p.20.png","yb_name":"Albania"},{"place_id":198133529,"licence":"Data © OpenStreetMap contributors, ODbL 1.0. https://osm.org/copyright","osm_type":"relation","osm_id":195273,"boundingbox":["-26.9209427","-10.3252149","30.2138197","41.0545908"],"lat":"-19.302233","lon":"34.9144977","display_name":"Mozambique","class":"boundary","type":"administrative","importance":0.82075552730027,"icon":"https://nominatim.openstreetmap.org/images/mapicons/poi_boundary_administrative.p.20.png","yb_name":"Albania"},{"place_id":198662583,"licence":"Data © OpenStreetMap contributors, ODbL 1.0. https://osm.org/copyright","osm_type":"relation","osm_id":50371,"boundingbox":["9.4399432","28.547835","92.1719423","101.1700796"],"lat":"17.1750495","lon":"95.9999652","display_name":"Myanmar","class":"boundary","type":"administrative","importance":0.832066604703029,"icon":"https://nominatim.openstreetmap.org/images/mapicons/poi_boundary_administrative.p.20.png","yb_name":"Albania"},{"place_id":198172360,"licence":"Data © OpenStreetMap contributors, ODbL 1.0. https://osm.org/copyright","osm_type":"relation","osm_id":195266,"boundingbox":["-28.96945","-16.9635105","11.5280384","25.2617671"],"lat":"-23.2335499","lon":"17.3231107","display_name":"Namibia","class":"boundary","type":"administrative","importance":0.815640574316195,"icon":"https://nominatim.openstreetmap.org/images/mapicons/poi_boundary_administrative.p.20.png","yb_name":"Albania"},{"place_id":198172320,"licence":"Data © OpenStreetMap contributors, ODbL 1.0. https://osm.org/copyright","osm_type":"relation","osm_id":571804,"boundingbox":["-0.753","-0.303","166.7099864","167.1597301"],"lat":"-0.5252306","lon":"166.9324426","display_name":"Nauru","class":"boundary","type":"administrative","importance":0.748036766038873,"icon":"https://nominatim.openstreetmap.org/images/mapicons/poi_boundary_administrative.p.20.png","yb_name":"Albania"},{"place_id":198120524,"licence":"Data © OpenStreetMap contributors, ODbL 1.0. https://osm.org/copyright","osm_type":"relation","osm_id":184633,"boundingbox":["26.3477581","30.446945","80.0586226","88.2015257"],"lat":"28.1083929","lon":"84.0917139","display_name":"Nepal","class":"boundary","type":"administrative","importance":0.83817807738039,"icon":"https://nominatim.openstreetmap.org/images/mapicons/poi_boundary_administrative.p.20.png","yb_name":"Albania"},{"place_id":198097880,"licence":"Data © OpenStreetMap contributors, ODbL 1.0. https://osm.org/copyright","osm_type":"relation","osm_id":47796,"boundingbox":["11.825","53.744389","-68.6255319","7.2274985"],"lat":"52.24726925","lon":"5.54122345487672","display_name":"Netherlands","class":"boundary","type":"administrative","importance":0.96279929223856,"icon":"https://nominatim.openstreetmap.org/images/mapicons/poi_boundary_administrative.p.20.png","yb_name":"Albania"},{"place_id":199117610,"licence":"Data © OpenStreetMap contributors, ODbL 1.0. https://osm.org/copyright","osm_type":"relation","osm_id":7230739,"boundingbox":["17.0941723","17.2077369","-62.6335332","-62.5396345"],"lat":"17.1508813","lon":"-62.5852896007","display_name":"Nevis, Saint Kitts and Nevis","class":"boundary","type":"administrative","importance":0.66,"icon":"https://nominatim.openstreetmap.org/images/mapicons/poi_boundary_administrative.p.20.png","yb_name":"Albania"},{"place_id":247309314,"licence":"Data © OpenStreetMap contributors, ODbL 1.0. https://osm.org/copyright","osm_type":"way","osm_id":254939036,"boundingbox":["-23.2217509","-17.6868616","162.6034343","167.8109827"],"lat":"-20.4542886","lon":"164.55660583078","display_name":"New Caledonia","class":"boundary","type":"administrative","importance":0.8500000000000001,"icon":"https://nominatim.openstreetmap.org/images/mapicons/poi_boundary_administrative.p.20.png","yb_name":"Albania"},{"place_id":198336290,"licence":"Data © OpenStreetMap contributors, ODbL 1.0. https://osm.org/copyright","osm_type":"relation","osm_id":556706,"boundingbox":["-52.8213687","-29.0303303","-179.059153","179.3643594"],"lat":"-41.5000831","lon":"172.8344077","display_name":"New Zealand","class":"boundary","type":"administrative","importance":0.989950004578922,"icon":"https://nominatim.openstreetmap.org/images/mapicons/poi_boundary_administrative.p.20.png","yb_name":"Albania"},{"place_id":198207951,"licence":"Data © OpenStreetMap contributors, ODbL 1.0. https://osm.org/copyright","osm_type":"relation","osm_id":287666,"boundingbox":["10.7076565","15.0331183","-87.901532","-82.6227023"],"lat":"12.3724928","lon":"-84.8700308","display_name":"Nicaragua","class":"boundary","type":"administrative","importance":0.820703059934043,"icon":"https://nominatim.openstreetmap.org/images/mapicons/poi_boundary_administrative.p.20.png","yb_name":"Albania"},{"place_id":197713323,"licence":"Data © OpenStreetMap contributors, ODbL 1.0. https://osm.org/copyright","osm_type":"relation","osm_id":192786,"boundingbox":["11.693756","23.517178","0.1689653","15.996667"],"lat":"17.7356214","lon":"9.3238432","display_name":"Niger","class":"boundary","type":"administrative","importance":0.789923978781705,"icon":"https://nominatim.openstreetmap.org/images/mapicons/poi_boundary_administrative.p.20.png","yb_name":"Albania"},{"place_id":197859437,"licence":"Data © OpenStreetMap contributors, ODbL 1.0. https://osm.org/copyright","osm_type":"relation","osm_id":192787,"boundingbox":["4.0690959","13.885645","2.676932","14.678014"],"lat":"9.6000359","lon":"7.9999721","display_name":"Nigeria","class":"boundary","type":"administrative","importance":0.862602277388425,"icon":"https://nominatim.openstreetmap.org/images/mapicons/poi_boundary_administrative.p.20.png","yb_name":"Albania"},{"place_id":198187860,"licence":"Data © OpenStreetMap contributors, ODbL 1.0. https://osm.org/copyright","osm_type":"relation","osm_id":1558556,"boundingbox":["-19.3548665","-18.7534559","-170.1595029","-169.5647229"],"lat":"-19.0536414","lon":"-169.8613411","display_name":"Niue","class":"boundary","type":"administrative","importance":0.708971206974036,"icon":"https://nominatim.openstreetmap.org/images/mapicons/poi_boundary_administrative.p.20.png","yb_name":"Albania"},{"place_id":243724487,"licence":"Data © OpenStreetMap contributors, ODbL 1.0. https://osm.org/copyright","osm_type":"relation","osm_id":2386068,"boundingbox":["-29.0626787","-28.9953081","167.9147193","167.9965857"],"lat":"-29.0289575","lon":"167.958728912637","display_name":"Norfolk Island, 2899, Australia","class":"place","type":"island","importance":0.733608219003316,"yb_name":"Albania"},{"place_id":198374227,"licence":"Data © OpenStreetMap contributors, ODbL 1.0. https://osm.org/copyright","osm_type":"relation","osm_id":1059668,"boundingbox":["57.7590052","71.3848787","4.0875274","31.7614911"],"lat":"64.5731537","lon":"11.5280364395482","display_name":"Norway, 263, Gamvik, Finnmark, 9775, Norway","class":"boundary","type":"administrative","importance":0.953271276104623,"icon":"https://nominatim.openstreetmap.org/images/mapicons/poi_boundary_administrative.p.20.png","yb_name":"Albania"},{"place_id":197940928,"licence":"Data © OpenStreetMap contributors, ODbL 1.0. https://osm.org/copyright","osm_type":"relation","osm_id":307573,"boundingbox":["23.5393916","37.084107","60.872855","77.1203914"],"lat":"30.3308401","lon":"71.247499","display_name":"Pakistan","class":"boundary","type":"administrative","importance":0.900107888915122,"icon":"https://nominatim.openstreetmap.org/images/mapicons/poi_boundary_administrative.p.20.png","yb_name":"Albania"},{"place_id":198894722,"licence":"Data © OpenStreetMap contributors, ODbL 1.0. https://osm.org/copyright","osm_type":"relation","osm_id":571805,"boundingbox":["2.748","8.222","131.0685462","134.7714735"],"lat":"6.097367","lon":"133.313631","display_name":"Palau","class":"boundary","type":"administrative","importance":0.743823463151897,"icon":"https://nominatim.openstreetmap.org/images/mapicons/poi_boundary_administrative.p.20.png","yb_name":"Albania"},{"place_id":262070567,"licence":"Data © OpenStreetMap contributors, ODbL 1.0. https://osm.org/copyright","osm_type":"relation","osm_id":1703814,"boundingbox":["31.2201289","32.5521479","34.0689732","35.5739235"],"lat":"31.94696655","lon":"35.273865472915","display_name":"Palestinian Territories, 4435, Kharbatha al-Misbah, Ramallah and al-Bireh Governorate, West Bank, Judea and Samaria, Palestinian Territory","class":"boundary","type":"disputed","importance":0.666574982241797,"yb_name":"Albania"},{"place_id":198198395,"licence":"Data © OpenStreetMap contributors, ODbL 1.0. https://osm.org/copyright","osm_type":"relation","osm_id":287668,"boundingbox":["7.0338679","9.8701757","-83.0517245","-77.1393779"],"lat":"8.3096067","lon":"-81.3066246","display_name":"Panama","class":"boundary","type":"administrative","importance":0.834162041453962,"icon":"https://nominatim.openstreetmap.org/images/mapicons/poi_boundary_administrative.p.20.png","yb_name":"Albania"},{"place_id":197813324,"licence":"Data © OpenStreetMap contributors, ODbL 1.0. https://osm.org/copyright","osm_type":"relation","osm_id":307866,"boundingbox":["-11.8555739","-0.5573576","140.8416553","159.692724"],"lat":"-5.6816069","lon":"144.2489081","display_name":"Papua New Guinea","class":"boundary","type":"administrative","importance":0.961015556285561,"icon":"https://nominatim.openstreetmap.org/images/mapicons/poi_boundary_administrative.p.20.png","yb_name":"Albania"},{"place_id":197912501,"licence":"Data © OpenStreetMap contributors, ODbL 1.0. https://osm.org/copyright","osm_type":"relation","osm_id":287077,"boundingbox":["-27.6063935","-19.2876472","-62.6442036","-54.258"],"lat":"-23.3165935","lon":"-58.1693445","display_name":"Paraguay","class":"boundary","type":"administrative","importance":0.843228336251356,"icon":"https://nominatim.openstreetmap.org/images/mapicons/poi_boundary_administrative.p.20.png","yb_name":"Albania"},{"place_id":198163348,"licence":"Data © OpenStreetMap contributors, ODbL 1.0. https://osm.org/copyright","osm_type":"relation","osm_id":288247,"boundingbox":["-20.1984472","-0.0392818","-84.6356535","-68.6519906"],"lat":"-6.8699697","lon":"-75.0458515","display_name":"Peru","class":"boundary","type":"administrative","importance":0.897645392341341,"icon":"https://nominatim.openstreetmap.org/images/mapicons/poi_boundary_administrative.p.20.png","yb_name":"Albania"},{"place_id":197977431,"licence":"Data © OpenStreetMap contributors, ODbL 1.0. https://osm.org/copyright","osm_type":"relation","osm_id":443174,"boundingbox":["4.2158064","21.3217806","114.0952145","126.8072562"],"lat":"12.7503486","lon":"122.7312101","display_name":"Philippines","class":"boundary","type":"administrative","importance":0.90571487783214,"icon":"https://nominatim.openstreetmap.org/images/mapicons/poi_boundary_administrative.p.20.png","yb_name":"Albania"},{"place_id":198819069,"licence":"Data © OpenStreetMap contributors, ODbL 1.0. https://osm.org/copyright","osm_type":"relation","osm_id":3819481,"boundingbox":["0.827","8.348","154.0399549","160.9171513"],"lat":"6.8917101","lon":"158.2327877","display_name":"Pohnpei, Federated States of Micronesia","class":"boundary","type":"administrative","importance":0.580265141014595,"icon":"https://nominatim.openstreetmap.org/images/mapicons/poi_boundary_administrative.p.20.png","yb_name":"Albania"},{"place_id":198010785,"licence":"Data © OpenStreetMap contributors, ODbL 1.0. https://osm.org/copyright","osm_type":"relation","osm_id":49715,"boundingbox":["49.0020468","55.0336963","14.1229707","24.145783"],"lat":"52.215933","lon":"19.134422","display_name":"Poland","class":"boundary","type":"administrative","importance":1.00229898543353,"icon":"https://nominatim.openstreetmap.org/images/mapicons/poi_boundary_administrative.p.20.png","yb_name":"Albania"},{"place_id":198200685,"licence":"Data © OpenStreetMap contributors, ODbL 1.0. https://osm.org/copyright","osm_type":"relation","osm_id":295480,"boundingbox":["29.8288021","42.1543112","-31.5575303","-6.1891593"],"lat":"40.033265","lon":"-7.8896263","display_name":"Portugal","class":"boundary","type":"administrative","importance":0.9445088094901359,"icon":"https://nominatim.openstreetmap.org/images/mapicons/poi_boundary_administrative.p.20.png","yb_name":"Albania"},{"place_id":199036629,"licence":"Data © OpenStreetMap contributors, ODbL 1.0. https://osm.org/copyright","osm_type":"relation","osm_id":7117066,"boundingbox":["17.9268695","18.5159789","-67.271492","-65.5897525"],"lat":"18.22141715","lon":"-66.4132818505648","display_name":"Puerto Rico, Orocovis, Puerto Rico, USA","class":"place","type":"island","importance":0.895133533622561,"yb_name":"Albania"},{"place_id":198686468,"licence":"Data © OpenStreetMap contributors, ODbL 1.0. https://osm.org/copyright","osm_type":"relation","osm_id":77601,"boundingbox":["-21.3897308","-20.8717136","55.2164268","55.8366924"],"lat":"-21.1309332","lon":"55.5265771","display_name":"Réunion, France","class":"boundary","type":"administrative","importance":0.666221405068676,"icon":"https://nominatim.openstreetmap.org/images/mapicons/poi_boundary_administrative.p.20.png","yb_name":"Albania"},{"place_id":198613970,"licence":"Data © OpenStreetMap contributors, ODbL 1.0. https://osm.org/copyright","osm_type":"relation","osm_id":3691784,"boundingbox":["-19.985","-19.467","63.0861924","63.7151319"],"lat":"-19.7245","lon":"63.4005022958333","display_name":"Rodrigues, Mauritius","class":"boundary","type":"administrative","importance":0.61,"icon":"https://nominatim.openstreetmap.org/images/mapicons/poi_boundary_administrative.p.20.png","yb_name":"Albania"},{"place_id":198306739,"licence":"Data © OpenStreetMap contributors, ODbL 1.0. https://osm.org/copyright","osm_type":"relation","osm_id":90689,"boundingbox":["43.618682","48.2653964","20.2619773","30.0454257"],"lat":"45.9852129","lon":"24.6859225","display_name":"Romania","class":"boundary","type":"administrative","importance":0.949309403997746,"icon":"https://nominatim.openstreetmap.org/images/mapicons/poi_boundary_administrative.p.20.png","yb_name":"Albania"},{"place_id":198665410,"licence":"Data © OpenStreetMap contributors, ODbL 1.0. https://osm.org/copyright","osm_type":"relation","osm_id":3186080,"boundingbox":["14.1103736","14.2003593","145.1211628","145.2904841"],"lat":"14.15536025","lon":"145.211481206983","display_name":"Rota, Rota Municipality, Northern Mariana Islands, United States of America (CNMI)","class":"place","type":"island","importance":0.49987285223364497,"yb_name":"Albania"},{"place_id":198131738,"licence":"Data © OpenStreetMap contributors, ODbL 1.0. https://osm.org/copyright","osm_type":"relation","osm_id":171496,"boundingbox":["-2.8397581","-1.0474083","28.8617546","30.8990738"],"lat":"-1.9646631","lon":"30.0644358","display_name":"Rwanda","class":"boundary","type":"administrative","importance":0.796488507634571,"icon":"https://nominatim.openstreetmap.org/images/mapicons/poi_boundary_administrative.p.20.png","yb_name":"Albania"},{"place_id":198715366,"licence":"Data © OpenStreetMap contributors, ODbL 1.0. https://osm.org/copyright","osm_type":"relation","osm_id":3879783,"boundingbox":["4.0932064","7.6667327","115.32751","119.5833462"],"lat":"5.595237","lon":"117.0051734","display_name":"Sabah, Malaysia","class":"boundary","type":"administrative","importance":0.699443639274004,"icon":"https://nominatim.openstreetmap.org/images/mapicons/poi_boundary_administrative.p.20.png","yb_name":"Albania"},{"place_id":262922210,"licence":"Data © OpenStreetMap contributors, ODbL 1.0. https://osm.org/copyright","osm_type":"relation","osm_id":1363079,"boundingbox":["17.8708183","17.9741034","-62.9511181","-62.7890273"],"lat":"17.9036287","lon":"-62.8115688430069","display_name":"Saint Barthélemy, 97133, France","class":"boundary","type":"administrative","importance":0.530381706511445,"icon":"https://nominatim.openstreetmap.org/images/mapicons/poi_boundary_administrative.p.20.png","yb_name":"Albania"},{"place_id":198352479,"licence":"Data © OpenStreetMap contributors, ODbL 1.0. https://osm.org/copyright","osm_type":"relation","osm_id":2324452,"boundingbox":["17.2791599","17.735835","-63.193474","-62.7862552"],"lat":"17.4865252","lon":"-62.9653116","display_name":"Sint Eustatius, Caribbean Netherlands, Netherlands","class":"boundary","type":"administrative","importance":0.628153271596197,"icon":"https://nominatim.openstreetmap.org/images/mapicons/poi_boundary_administrative.p.20.png","yb_name":"Albania"},{"place_id":198727536,"licence":"Data © OpenStreetMap contributors, ODbL 1.0. https://osm.org/copyright","osm_type":"relation","osm_id":155987,"boundingbox":["-16.23","-15.704","-5.9973424","-5.4234153"],"lat":"-15.9686862","lon":"-5.7129557","display_name":"Saint Helena, Saint Helena, Ascension and Tristan da Cunha","class":"boundary","type":"administrative","importance":0.8,"icon":"https://nominatim.openstreetmap.org/images/mapicons/poi_boundary_administrative.p.20.png","yb_name":"Albania"},{"place_id":198830949,"licence":"Data © OpenStreetMap contributors, ODbL 1.0. https://osm.org/copyright","osm_type":"relation","osm_id":536899,"boundingbox":["16.895","17.6158146","-63.051129","-62.3303519"],"lat":"17.3462278","lon":"-62.7687277","display_name":"Saint Kitts and Nevis","class":"boundary","type":"administrative","importance":0.665343582878679,"icon":"https://nominatim.openstreetmap.org/images/mapicons/poi_boundary_administrative.p.20.png","yb_name":"Albania"},{"place_id":198334884,"licence":"Data © OpenStreetMap contributors, ODbL 1.0. https://osm.org/copyright","osm_type":"relation","osm_id":550728,"boundingbox":["13.508","14.2725","-61.2853867","-60.6669363"],"lat":"13.8250489","lon":"-60.975036","display_name":"Saint Lucia","class":"boundary","type":"administrative","importance":0.692230009314501,"icon":"https://nominatim.openstreetmap.org/images/mapicons/poi_boundary_administrative.p.20.png","yb_name":"Albania"},{"place_id":199187042,"licence":"Data © OpenStreetMap contributors, ODbL 1.0. https://osm.org/copyright","osm_type":"relation","osm_id":2726643,"boundingbox":["52.7323564","52.7794571","4.7032337","4.7957997"],"lat":"52.7559345","lon":"4.75054760077122","display_name":"Sint Maarten, Schagen, North Holland, Netherlands","class":"boundary","type":"administrative","importance":0.38123150335341704,"icon":"https://nominatim.openstreetmap.org/images/mapicons/poi_boundary_administrative.p.20.png","yb_name":"Albania"},{"place_id":198172282,"licence":"Data © OpenStreetMap contributors, ODbL 1.0. https://osm.org/copyright","osm_type":"relation","osm_id":146202,"boundingbox":["47.7365393","47.7872921","-2.3174906","-2.2153421"],"lat":"47.74511","lon":"-2.25487","display_name":"Saint-Martin-sur-Oust, Vannes, Morbihan, Brittany, Metropolitan France, 56200, France","class":"boundary","type":"administrative","importance":0.6961917576918399,"icon":"https://nominatim.openstreetmap.org/images/mapicons/poi_boundary_administrative.p.20.png","yb_name":"Albania"},{"place_id":198773602,"licence":"Data © OpenStreetMap contributors, ODbL 1.0. https://osm.org/copyright","osm_type":"relation","osm_id":3406826,"boundingbox":["46.5507173","47.365","-56.6972961","-55.9033333"],"lat":"46.8374544","lon":"-56.2120555","display_name":"Saint Pierre and Miquelon, France","class":"boundary","type":"administrative","importance":0.791080302081554,"icon":"https://nominatim.openstreetmap.org/images/mapicons/poi_boundary_administrative.p.20.png","yb_name":"Albania"},{"place_id":198098268,"licence":"Data © OpenStreetMap contributors, ODbL 1.0. https://osm.org/copyright","osm_type":"relation","osm_id":550725,"boundingbox":["12.5166548","13.583","-61.6657471","-60.9094146"],"lat":"12.90447","lon":"-61.2765569","display_name":"Saint Vincent and the Grenadines","class":"boundary","type":"administrative","importance":0.8639112055052961,"icon":"https://nominatim.openstreetmap.org/images/mapicons/poi_boundary_administrative.p.20.png","yb_name":"Albania"},{"place_id":198506456,"licence":"Data © OpenStreetMap contributors, ODbL 1.0. https://osm.org/copyright","osm_type":"relation","osm_id":3218318,"boundingbox":["15.0918753","15.2900807","145.6895714","145.8304832"],"lat":"15.1909828","lon":"145.746808767694","display_name":"Saipan, Saipan Municipality, Northern Mariana Islands, 96950, United States of America (CNMI)","class":"place","type":"island","importance":0.672831827534098,"yb_name":"Albania"},{"place_id":198353292,"licence":"Data © OpenStreetMap contributors, ODbL 1.0. https://osm.org/copyright","osm_type":"relation","osm_id":1872673,"boundingbox":["-14.2770916","-13.2381892","-173.0091864","-171.1929229"],"lat":"-13.7693895","lon":"-172.1200508","display_name":"Samoa","class":"boundary","type":"administrative","importance":0.77289854572232,"icon":"https://nominatim.openstreetmap.org/images/mapicons/poi_boundary_administrative.p.20.png","yb_name":"Albania"},{"place_id":198042520,"licence":"Data © OpenStreetMap contributors, ODbL 1.0. https://osm.org/copyright","osm_type":"relation","osm_id":54624,"boundingbox":["43.8937002","43.992093","12.4033246","12.5160665"],"lat":"43.9458623","lon":"12.458306","display_name":"San Marino","class":"boundary","type":"administrative","importance":0.8066224929737731,"icon":"https://nominatim.openstreetmap.org/images/mapicons/poi_boundary_administrative.p.20.png","yb_name":"Albania"},{"place_id":198165024,"licence":"Data © OpenStreetMap contributors, ODbL 1.0. https://osm.org/copyright","osm_type":"relation","osm_id":535880,"boundingbox":["-0.2135137","1.9257601","6.260642","7.6704783"],"lat":"0.8875498","lon":"6.9648718","display_name":"São Tomé and Príncipe","class":"boundary","type":"administrative","importance":0.645732015393547,"icon":"https://nominatim.openstreetmap.org/images/mapicons/poi_boundary_administrative.p.20.png","yb_name":"Albania"},{"place_id":198141381,"licence":"Data © OpenStreetMap contributors, ODbL 1.0. https://osm.org/copyright","osm_type":"relation","osm_id":192775,"boundingbox":["12.2372838","16.6919712","-17.7862419","-11.3459408"],"lat":"14.4750607","lon":"-14.4529612","display_name":"Senegal","class":"boundary","type":"administrative","importance":0.830873896244526,"icon":"https://nominatim.openstreetmap.org/images/mapicons/poi_boundary_administrative.p.20.png","yb_name":"Albania"},{"place_id":198326930,"licence":"Data © OpenStreetMap contributors, ODbL 1.0. https://osm.org/copyright","osm_type":"relation","osm_id":1741311,"boundingbox":["42.2322435","46.1900524","18.8142875","23.006309"],"lat":"44.1534121","lon":"20.55144","display_name":"Serbia","class":"boundary","type":"administrative","importance":0.910871731780879,"icon":"https://nominatim.openstreetmap.org/images/mapicons/poi_boundary_administrative.p.20.png","yb_name":"Albania"},{"place_id":198131595,"licence":"Data © OpenStreetMap contributors, ODbL 1.0. https://osm.org/copyright","osm_type":"relation","osm_id":536765,"boundingbox":["-10.4649258","-3.512","45.9988759","56.4979396"],"lat":"-4.6574977","lon":"55.4540146","display_name":"Seychelles","class":"boundary","type":"administrative","importance":0.7714613141128029,"icon":"https://nominatim.openstreetmap.org/images/mapicons/poi_boundary_administrative.p.20.png","yb_name":"Albania"},{"place_id":198371671,"licence":"Data © OpenStreetMap contributors, ODbL 1.0. https://osm.org/copyright","osm_type":"relation","osm_id":192777,"boundingbox":["6.755","9.999973","-13.5003389","-10.271683"],"lat":"8.6400349","lon":"-11.8400269","display_name":"Sierra Leone","class":"boundary","type":"administrative","importance":0.8293677088554909,"icon":"https://nominatim.openstreetmap.org/images/mapicons/poi_boundary_administrative.p.20.png","yb_name":"Albania"},{"place_id":197660455,"licence":"Data © OpenStreetMap contributors, ODbL 1.0. https://osm.org/copyright","osm_type":"relation","osm_id":14296,"boundingbox":["47.7314286","49.6138162","16.8331891","22.56571"],"lat":"48.7411522","lon":"19.4528646","display_name":"Slovakia","class":"boundary","type":"administrative","importance":0.909109071032176,"icon":"https://nominatim.openstreetmap.org/images/mapicons/poi_boundary_administrative.p.20.png","yb_name":"Albania"},{"place_id":197922193,"licence":"Data © OpenStreetMap contributors, ODbL 1.0. https://osm.org/copyright","osm_type":"relation","osm_id":218657,"boundingbox":["45.4214242","46.8766816","13.3754696","16.5967702"],"lat":"45.8133113","lon":"14.4808369","display_name":"Slovenia","class":"boundary","type":"administrative","importance":0.900961994176904,"icon":"https://nominatim.openstreetmap.org/images/mapicons/poi_boundary_administrative.p.20.png","yb_name":"Albania"},{"place_id":198564800,"licence":"Data © OpenStreetMap contributors, ODbL 1.0. https://osm.org/copyright","osm_type":"relation","osm_id":1857436,"boundingbox":["-13.2424298","-4.81085","155.3190556","170.3964667"],"lat":"-9.7354344","lon":"162.8288542","display_name":"Solomon Islands","class":"boundary","type":"administrative","importance":0.8257153642425961,"icon":"https://nominatim.openstreetmap.org/images/mapicons/poi_boundary_administrative.p.20.png","yb_name":"Albania"},{"place_id":198052670,"licence":"Data © OpenStreetMap contributors, ODbL 1.0. https://osm.org/copyright","osm_type":"relation","osm_id":87565,"boundingbox":["-47.1788335","-22.1250301","16.3335213","38.2898954"],"lat":"-28.8166236","lon":"24.991639","display_name":"RSA","class":"boundary","type":"administrative","importance":0.786382433709693,"icon":"https://nominatim.openstreetmap.org/images/mapicons/poi_boundary_administrative.p.20.png","yb_name":"Albania"},{"place_id":198348130,"licence":"Data © OpenStreetMap contributors, ODbL 1.0. https://osm.org/copyright","osm_type":"relation","osm_id":1656678,"boundingbox":["3.48898","12.236389","23.447778","35.948997"],"lat":"7.8699431","lon":"29.6667897","display_name":"South Sudan","class":"boundary","type":"administrative","importance":0.7706357927929941,"icon":"https://nominatim.openstreetmap.org/images/mapicons/poi_boundary_administrative.p.20.png","yb_name":"Albania"},{"place_id":198974448,"licence":"Data © OpenStreetMap contributors, ODbL 1.0. https://osm.org/copyright","osm_type":"relation","osm_id":1311341,"boundingbox":["27.4335426","43.9933088","-18.3936845","4.5918885"],"lat":"39.3262345","lon":"-4.8380649","display_name":"Spain","class":"boundary","type":"administrative","importance":1.007882410899472,"icon":"https://nominatim.openstreetmap.org/images/mapicons/poi_boundary_administrative.p.20.png","yb_name":"Albania"},{"place_id":198131663,"licence":"Data © OpenStreetMap contributors, ODbL 1.0. https://osm.org/copyright","osm_type":"relation","osm_id":536807,"boundingbox":["5.719","10.035","79.3959205","82.0810141"],"lat":"7.5554942","lon":"80.7137847","display_name":"Sri Lanka","class":"boundary","type":"administrative","importance":0.9065473181010679,"icon":"https://nominatim.openstreetmap.org/images/mapicons/poi_boundary_administrative.p.20.png","yb_name":"Albania"},{"place_id":198141924,"licence":"Data © OpenStreetMap contributors, ODbL 1.0. https://osm.org/copyright","osm_type":"relation","osm_id":192789,"boundingbox":["8.685278","22.224918","21.8145046","39.0576252"],"lat":"14.5844444","lon":"29.4917691","display_name":"Sudan","class":"boundary","type":"administrative","importance":0.831815979524253,"icon":"https://nominatim.openstreetmap.org/images/mapicons/poi_boundary_administrative.p.20.png","yb_name":"Albania"},{"place_id":197765360,"licence":"Data © OpenStreetMap contributors, ODbL 1.0. https://osm.org/copyright","osm_type":"relation","osm_id":287082,"boundingbox":["1.8312802","6.225","-58.070833","-53.8433358"],"lat":"4.1413025","lon":"-56.0771187","display_name":"Suriname","class":"boundary","type":"administrative","importance":0.7922196218497219,"icon":"https://nominatim.openstreetmap.org/images/mapicons/poi_boundary_administrative.p.20.png","yb_name":"Albania"},{"place_id":198065761,"licence":"Data © OpenStreetMap contributors, ODbL 1.0. https://osm.org/copyright","osm_type":"relation","osm_id":88210,"boundingbox":["-27.3175201","-25.71876","30.7908","32.1349923"],"lat":"-26.5624806","lon":"31.3991317","display_name":"Eswatini","class":"boundary","type":"administrative","importance":0.66062396764926,"icon":"https://nominatim.openstreetmap.org/images/mapicons/poi_boundary_administrative.p.20.png","yb_name":"Albania"},{"place_id":198100174,"licence":"Data © OpenStreetMap contributors, ODbL 1.0. https://osm.org/copyright","osm_type":"relation","osm_id":52822,"boundingbox":["55.1331192","69.0599699","10.5930952","24.1776819"],"lat":"59.6749712","lon":"14.5208584","display_name":"Sweden","class":"boundary","type":"administrative","importance":0.9764512747838769,"icon":"https://nominatim.openstreetmap.org/images/mapicons/poi_boundary_administrative.p.20.png","yb_name":"Albania"},{"place_id":198667942,"licence":"Data © OpenStreetMap contributors, ODbL 1.0. https://osm.org/copyright","osm_type":"relation","osm_id":51701,"boundingbox":["45.817995","47.8084648","5.9559113","10.4922941"],"lat":"46.7985624","lon":"8.2319736","display_name":"Switzerland","class":"boundary","type":"administrative","importance":0.968099623645005,"icon":"https://nominatim.openstreetmap.org/images/mapicons/poi_boundary_administrative.p.20.png","yb_name":"Albania"},{"place_id":198974521,"licence":"Data © OpenStreetMap contributors, ODbL 1.0. https://osm.org/copyright","osm_type":"relation","osm_id":3992237,"boundingbox":["-17.8804162","-17.494194","-149.6208735","-149.1247069"],"lat":"-17.68749305","lon":"-149.44507813202","display_name":"Tahiti, Teva I Uta, Windward Islands, French Polynesia, France, Polynésie française (eaux territoriales)","class":"place","type":"island","importance":0.706622722402049,"yb_name":"Albania"},{"place_id":199217435,"licence":"Data © OpenStreetMap contributors, ODbL 1.0. https://osm.org/copyright","osm_type":"relation","osm_id":7219605,"boundingbox":["21.8968599","25.2997353","120.0341883","122.0064049"],"lat":"23.59829785","lon":"120.835363138175","display_name":"Taiwan, Xinyi Township, Nantou County, Taiwan Province, Taiwan","class":"place","type":"island","importance":0.869105701617648,"yb_name":"Albania"},{"place_id":197703707,"licence":"Data © OpenStreetMap contributors, ODbL 1.0. https://osm.org/copyright","osm_type":"relation","osm_id":195270,"boundingbox":["-11.761254","-0.9854812","29.3269773","40.6584071"],"lat":"-6.5247123","lon":"35.7878438","display_name":"Tanzania","class":"boundary","type":"administrative","importance":0.838264157106011,"icon":"https://nominatim.openstreetmap.org/images/mapicons/poi_boundary_administrative.p.20.png","yb_name":"Albania"},{"place_id":256152813,"licence":"Data © OpenStreetMap contributors, ODbL 1.0. https://osm.org/copyright","osm_type":"relation","osm_id":903822,"boundingbox":["5.612851","20.4648337","97.3438072","105.636812"],"lat":"14.8971921","lon":"100.83273","display_name":"Thailand","class":"place","type":"country","importance":0.889643324467703,"icon":"https://nominatim.openstreetmap.org/images/mapicons/poi_boundary_administrative.p.20.png","yb_name":"Albania"},{"place_id":197786998,"licence":"Data © OpenStreetMap contributors, ODbL 1.0. https://osm.org/copyright","osm_type":"relation","osm_id":305142,"boundingbox":["-9.5642775","-8.0895459","124.0415703","127.5335392"],"lat":"-8.5151979","lon":"125.8375756","display_name":"East Timor","class":"boundary","type":"administrative","importance":0.730159289039267,"icon":"https://nominatim.openstreetmap.org/images/mapicons/poi_boundary_administrative.p.20.png","yb_name":"Albania"},{"place_id":7164219,"licence":"Data © OpenStreetMap contributors, ODbL 1.0. https://osm.org/copyright","osm_type":"node","osm_id":747716787,"boundingbox":["45.1977273","45.2377273","13.8207452","13.8607452"],"lat":"45.2177273","lon":"13.8407452","display_name":"Tinjan, Općina Tinjan, Istria County, 52444, Croatia","class":"place","type":"village","importance":0.402178385958575,"icon":"https://nominatim.openstreetmap.org/images/mapicons/poi_place_village.p.20.png","yb_name":"Albania"},{"place_id":197919802,"licence":"Data © OpenStreetMap contributors, ODbL 1.0. https://osm.org/copyright","osm_type":"relation","osm_id":192782,"boundingbox":["5.926547","11.1395102","-0.1439746","1.8087605"],"lat":"8.7800265","lon":"1.0199765","display_name":"Togo","class":"boundary","type":"administrative","importance":0.791903127464513,"icon":"https://nominatim.openstreetmap.org/images/mapicons/poi_boundary_administrative.p.20.png","yb_name":"Albania"},{"place_id":198416266,"licence":"Data © OpenStreetMap contributors, ODbL 1.0. https://osm.org/copyright","osm_type":"relation","osm_id":2186665,"boundingbox":["-24.1034499","-15.3655722","-179.3866055","-173.5295458"],"lat":"-19.9160819","lon":"-175.2026424","display_name":"Tonga","class":"boundary","type":"administrative","importance":0.765998161093111,"icon":"https://nominatim.openstreetmap.org/images/mapicons/poi_boundary_administrative.p.20.png","yb_name":"Albania"},{"place_id":198298528,"licence":"Data © OpenStreetMap contributors, ODbL 1.0. https://osm.org/copyright","osm_type":"relation","osm_id":555717,"boundingbox":["9.8732106","11.5628372","-62.083056","-60.2895848"],"lat":"10.8677845","lon":"-60.9821067","display_name":"Trinidad and Tobago","class":"boundary","type":"administrative","importance":0.8303893527202111,"icon":"https://nominatim.openstreetmap.org/images/mapicons/poi_boundary_administrative.p.20.png","yb_name":"Albania"},{"place_id":198779341,"licence":"Data © OpenStreetMap contributors, ODbL 1.0. https://osm.org/copyright","osm_type":"relation","osm_id":174737,"boundingbox":["35.8076804","42.297","25.6212891","44.8176638"],"lat":"38.9597594","lon":"34.9249653","display_name":"Turkey","class":"boundary","type":"administrative","importance":0.946653441426184,"icon":"https://nominatim.openstreetmap.org/images/mapicons/poi_boundary_administrative.p.20.png","yb_name":"Albania"},{"place_id":198319373,"licence":"Data © OpenStreetMap contributors, ODbL 1.0. https://osm.org/copyright","osm_type":"relation","osm_id":547479,"boundingbox":["20.9553418","22.1630989","-72.6799046","-70.8643591"],"lat":"21.7214683","lon":"-71.6201783","display_name":"Turks and Caicos Islands","class":"boundary","type":"administrative","importance":0.8363010163487581,"icon":"https://nominatim.openstreetmap.org/images/mapicons/poi_boundary_administrative.p.20.png","yb_name":"Albania"},{"place_id":198627895,"licence":"Data © OpenStreetMap contributors, ODbL 1.0. https://osm.org/copyright","osm_type":"relation","osm_id":2177266,"boundingbox":["-10.9939389","-5.4369611","-180","180"],"lat":"-7.768959","lon":"178.1167698","display_name":"Tuvalu","class":"boundary","type":"administrative","importance":0.7417369487971059,"icon":"https://nominatim.openstreetmap.org/images/mapicons/poi_boundary_administrative.p.20.png","yb_name":"Albania"},{"place_id":197921520,"licence":"Data © OpenStreetMap contributors, ODbL 1.0. https://osm.org/copyright","osm_type":"relation","osm_id":192796,"boundingbox":["-1.4823179","4.2340766","29.573433","35.000308"],"lat":"1.5333554","lon":"32.2166578","display_name":"Uganda","class":"boundary","type":"administrative","importance":0.8254734804591369,"icon":"https://nominatim.openstreetmap.org/images/mapicons/poi_boundary_administrative.p.20.png","yb_name":"Albania"},{"place_id":198675244,"licence":"Data © OpenStreetMap contributors, ODbL 1.0. https://osm.org/copyright","osm_type":"relation","osm_id":60199,"boundingbox":["44.184598","52.3791473","22.137059","40.2275801"],"lat":"49.4871968","lon":"31.2718321","display_name":"Ukraine","class":"boundary","type":"administrative","importance":0.95928622345796,"icon":"https://nominatim.openstreetmap.org/images/mapicons/poi_boundary_administrative.p.20.png","yb_name":"Albania"},{"place_id":197597979,"licence":"Data © OpenStreetMap contributors, ODbL 1.0. https://osm.org/copyright","osm_type":"relation","osm_id":148838,"boundingbox":["-14.7608358","71.6048217","-180","180"],"lat":"39.7837304","lon":"-100.4458825","display_name":"USA","class":"boundary","type":"administrative","importance":0.944692348397998,"icon":"https://nominatim.openstreetmap.org/images/mapicons/poi_boundary_administrative.p.20.png","yb_name":"Albania"},{"place_id":198023939,"licence":"Data © OpenStreetMap contributors, ODbL 1.0. https://osm.org/copyright","osm_type":"relation","osm_id":287072,"boundingbox":["-35.7824481","-30.0853962","-58.4947729","-53.0755833"],"lat":"-32.8755548","lon":"-56.0201525","display_name":"Uruguay","class":"boundary","type":"administrative","importance":0.86393407627743,"icon":"https://nominatim.openstreetmap.org/images/mapicons/poi_boundary_administrative.p.20.png","yb_name":"Albania"},{"place_id":198636754,"licence":"Data © OpenStreetMap contributors, ODbL 1.0. https://osm.org/copyright","osm_type":"relation","osm_id":2177246,"boundingbox":["-20.4627425","-12.8713777","166.3355255","170.449982"],"lat":"-16.5255069","lon":"168.1069154","display_name":"Vanuatu","class":"boundary","type":"administrative","importance":0.762681596238814,"icon":"https://nominatim.openstreetmap.org/images/mapicons/poi_boundary_administrative.p.20.png","yb_name":"Albania"},{"place_id":198189159,"licence":"Data © OpenStreetMap contributors, ODbL 1.0. https://osm.org/copyright","osm_type":"relation","osm_id":272644,"boundingbox":["0.647529","15.9158431","-73.3529632","-59.5427079"],"lat":"8.0018709","lon":"-66.1109318","display_name":"Venezuela","class":"boundary","type":"administrative","importance":0.888724643625492,"icon":"https://nominatim.openstreetmap.org/images/mapicons/poi_boundary_administrative.p.20.png","yb_name":"Albania"},{"place_id":198197635,"licence":"Data © OpenStreetMap contributors, ODbL 1.0. https://osm.org/copyright","osm_type":"relation","osm_id":286898,"boundingbox":["17.623468","18.464984","-65.159094","-64.512674"],"lat":"17.789187","lon":"-64.7080574","display_name":"United States Virgin Islands, United States of America (USVI Saint Croix)","class":"boundary","type":"administrative","importance":0.756588718865765,"icon":"https://nominatim.openstreetmap.org/images/mapicons/poi_boundary_administrative.p.20.png","yb_name":"Albania"},{"place_id":198197635,"licence":"Data © OpenStreetMap contributors, ODbL 1.0. https://osm.org/copyright","osm_type":"relation","osm_id":286898,"boundingbox":["17.623468","18.464984","-65.159094","-64.512674"],"lat":"17.789187","lon":"-64.7080574","display_name":"United States Virgin Islands, United States of America (USVI Saint Croix)","class":"boundary","type":"administrative","importance":0.756588718865765,"icon":"https://nominatim.openstreetmap.org/images/mapicons/poi_boundary_administrative.p.20.png","yb_name":"Albania"},{"place_id":198562656,"licence":"Data © OpenStreetMap contributors, ODbL 1.0. https://osm.org/copyright","osm_type":"relation","osm_id":3412448,"boundingbox":["-14.5630748","-12.9827961","-178.3873749","-175.9190391"],"lat":"-13.8173324","lon":"-177.1489649","display_name":"Wallis and Futuna, France, Wallis-et-Futuna (eaux territoriales)","class":"boundary","type":"maritime","importance":0.734009672713096,"yb_name":"Albania"},{"place_id":198666529,"licence":"Data © OpenStreetMap contributors, ODbL 1.0. https://osm.org/copyright","osm_type":"relation","osm_id":3819422,"boundingbox":["6.483","10.291","137.2234512","147.8503248"],"lat":"7.556","lon":"146.12854124","display_name":"Yap, Federated States of Micronesia","class":"boundary","type":"administrative","importance":0.66,"icon":"https://nominatim.openstreetmap.org/images/mapicons/poi_boundary_administrative.p.20.png","yb_name":"Albania"},{"place_id":198744144,"licence":"Data © OpenStreetMap contributors, ODbL 1.0. https://osm.org/copyright","osm_type":"relation","osm_id":195271,"boundingbox":["-18.0765945","-8.2712822","21.9993509","33.7010986"],"lat":"-14.5186239","lon":"27.5599164","display_name":"Zambia","class":"boundary","type":"administrative","importance":0.809849194622227,"icon":"https://nominatim.openstreetmap.org/images/mapicons/poi_boundary_administrative.p.20.png","yb_name":"Albania"},{"place_id":198211156,"licence":"Data © OpenStreetMap contributors, ODbL 1.0. https://osm.org/copyright","osm_type":"relation","osm_id":195272,"boundingbox":["-22.4241096","-15.6097033","25.2373","33.0683413"],"lat":"-18.4554963","lon":"29.7468414","display_name":"Zimbabwe","class":"boundary","type":"administrative","importance":0.824482144941285,"icon":"https://nominatim.openstreetmap.org/images/mapicons/poi_boundary_administrative.p.20.png","yb_name":"Albania"},
{"osm_type":"relation","osm_id":53292,"boundingbox":["39.6448625","42.6610848","19.1246095","21.0574335"],"lat":"75","lon":"26","display_name":"33 Other Lands"}]